Yaw;Pitch;Roll;Ang_vel_x;Ang_vel_y;Ang_vel_z;u(z);t;setpoint
358.875;0.5;1.1875;0.01;-0.03;-0.03;0.52;0.05;180
359;0.4375;1.25;0.01;-0.02;-0.03;0.52;0.1;180
359.0625;0.4375;1.3125;0;-0.02;-0.03;0.52;0.15;180
359.125;0.4375;1.375;-0.01;-0.01;-0.03;0.52;0.2;180
359.25;0.4375;1.375;-0.02;0;-0.03;0.52;0.25;180
359.375;0.4375;1.375;-0.02;0.02;-0.03;0.51;0.29;180
359.4375;0.5;1.375;-0.02;0.02;-0.04;0.52;0.34;180
359.5;0.5625;1.3125;-0.02;0.02;-0.03;0.52;0.39;180
359.625;0.625;1.25;-0.02;0.02;-0.03;0.52;0.45;180
359.6875;0.625;1.1875;-0.02;0.03;-0.04;0.52;0.49;180
359.8125;0.6875;1.125;-0.01;0.02;-0.02;0.51;0.53;180
359.875;0.75;1.0625;-0.01;0.01;0.02;0.49;0.58;180
359.875;0.75;1.0625;0;0;0.08;0.46;0.63;180
359.75;0.75;1;0.01;-0.01;0.17;0.41;0.68;180
359.375;0.75;1;0.02;-0.01;0.26;0.37;0.73;180
358.75;0.75;1;0.02;-0.03;0.31;0.34;0.78;180
357.9375;0.6875;1.0625;0.03;-0.03;0.34;0.33;0.82;180
357.1875;0.625;1.125;0.03;-0.03;0.37;0.31;0.87;180
356.1875;0.625;1.1875;0.03;-0.02;0.42;0.29;0.92;180
355.0625;0.5625;1.25;0.02;-0.02;0.48;0.26;0.96;180
354.0625;0.5;1.25;0.02;0;0.56;0.22;1.01;180
352.625;0.5;1.3125;0.01;0.01;0.62;0.19;1.06;180
350.9375;0.5;1.25;0.01;0.02;0.66;0.17;1.11;180
349.125;0.4375;1.1875;0.01;0.03;0.7;0.15;1.16;180
347.625;0.5;1.125;0.01;0.04;0.73;0.13;1.21;180
345.6875;0.5;1;0;0.05;0.77;0.11;1.25;180
343.625;0.5;0.8125;0;0.05;0.8;0.09;1.3;180
341.4375;0.5;0.625;0.01;0.05;0.83;0.08;1.35;180
339.125;0.5;0.5;0.01;0.05;0.86;0.06;1.4;180
337.25;0.5;0.3125;0.01;0.04;0.88;0.05;1.45;180
334.875;0.5;0.1875;0.01;0.03;0.9;0.04;1.49;180
332.375;0.4375;0.0625;0.02;0;0.93;0.02;1.54;180
329.875;0.375;0;0.01;0;0.96;0;1.59;180
327.75;0.375;0;0.01;-0.01;0.98;-0.01;1.63;180
325.0625;0.3125;0;0.01;-0.02;0.99;-0.02;1.68;180
322.3125;0.3125;0.0625;0.01;-0.02;1;-0.03;1.73;180
320.125;0.25;0.0625;0.01;-0.02;1.01;-0.04;1.78;180
317.3125;0.25;0.125;0.01;-0.01;1.01;-0.04;1.82;180
314.5;0.25;0.125;0.01;0;1.01;-0.05;1.87;180
312.3125;0.25;0.125;0.02;0.01;1.01;-0.05;1.91;180
309.5;0.1875;0.125;0.03;0.02;1.01;-0.06;1.96;180
306.6875;0.125;0.0625;0.03;0.04;1.02;-0.07;2.01;180
304.4375;0.0625;0;0.03;0.04;1.02;-0.07;2.06;180
301.625;0;-0.0625;0.04;0.05;1.02;-0.08;2.11;180
298.75;-0.0625;-0.1875;0.04;0.05;1.02;-0.08;2.16;180
295.9375;-0.1875;-0.3125;0.04;0.05;1.01;-0.09;2.21;180
293.125;-0.3125;-0.4375;0.04;0.04;1.01;-0.1;2.25;180
290.3125;-0.4375;-0.5625;0.03;0.03;1.01;-0.1;2.3;180
287.5;-0.5625;-0.625;0.02;0.02;1;-0.1;2.35;180
285.3125;-0.625;-0.6875;0.01;0.02;0.99;-0.11;2.4;180
282.5;-0.6875;-0.6875;0;0.01;0.99;-0.11;2.45;180
279.75;-0.75;-0.6875;-0.01;0.01;0.98;-0.12;2.5;180
277;-0.75;-0.625;-0.02;0;0.98;-0.12;2.54;180
274.3125;-0.75;-0.5625;-0.02;0;0.97;-0.12;2.59;180
272.1875;-0.6875;-0.5625;-0.02;0;0.96;-0.13;2.64;180
269.5;-0.6875;-0.5;-0.01;0;0.95;-0.13;2.69;180
266.875;-0.625;-0.4375;0;0.01;0.94;-0.13;2.73;180
264.25;-0.625;-0.375;0.01;0.01;0.93;-0.13;2.78;180
262.1875;-0.625;-0.375;0.02;0.02;0.92;-0.14;2.83;180
259.625;-0.6875;-0.375;0.03;0.02;0.9;-0.14;2.88;180
257.125;-0.75;-0.375;0.04;0.02;0.89;-0.14;2.92;180
255.125;-0.875;-0.375;0.05;0.02;0.88;-0.14;2.97;180
252.6875;-1;-0.375;0.05;0.02;0.86;-0.14;3.02;180
250.25;-1.125;-0.375;0.05;0.02;0.85;-0.14;3.07;180
248.375;-1.25;-0.375;0.04;0.02;0.84;-0.15;3.12;180
246;-1.375;-0.375;0.04;0.02;0.82;-0.14;3.16;180
243.75;-1.4375;-0.375;0.02;0.01;0.81;-0.15;3.21;180
241.5;-1.5;-0.3125;0.01;0.01;0.79;-0.15;3.26;180
239.25;-1.5625;-0.3125;-0.01;0.02;0.77;-0.14;3.31;180
237.125;-1.5;-0.25;-0.02;0.02;0.75;-0.14;3.36;180
235.4375;-1.5;-0.25;-0.02;0.02;0.74;-0.15;3.41;180
233.3125;-1.375;-0.25;-0.03;0.02;0.72;-0.15;3.45;180
231.3125;-1.3125;-0.25;-0.02;0.02;0.71;-0.14;3.5;180
229.3125;-1.1875;-0.25;-0.02;0.02;0.68;-0.14;3.55;180
227.75;-1.125;-0.25;-0.01;0.02;0.67;-0.14;3.6;180
225.875;-1.0625;-0.25;0;0.02;0.65;-0.14;3.64;180
224.0625;-1.0625;-0.25;0.01;0.01;0.63;-0.14;3.69;180
222.625;-1;-0.25;0.02;0.01;0.62;-0.14;3.73;180
220.875;-1;-0.25;0.03;0;0.6;-0.13;3.78;180
219.1875;-1.0625;-0.1875;0.03;-0.01;0.6;-0.14;3.83;180
217.875;-1.125;-0.1875;0.04;-0.01;0.58;-0.14;3.87;180
216.1875;-1.1875;-0.125;0.04;-0.02;0.58;-0.14;3.92;180
214.625;-1.3125;-0.0625;0.04;-0.02;0.56;-0.14;3.97;180
213.0625;-1.375;0;0.03;-0.01;0.55;-0.14;4.03;180
211.8125;-1.4375;0;0.03;-0.01;0.54;-0.14;4.07;180
210.3125;-1.5;0.0625;0.01;0;0.52;-0.14;4.12;180
208.8125;-1.5;0.125;0;0.01;0.51;-0.14;4.16;180
207.375;-1.4375;0.125;-0.01;0.02;0.49;-0.13;4.21;180
206.3125;-1.4375;0.125;-0.01;0.03;0.48;-0.13;4.26;180
204.9375;-1.375;0.125;-0.02;0.03;0.46;-0.13;4.31;180
203.625;-1.3125;0.0625;-0.02;0.04;0.45;-0.13;4.36;180
202.375;-1.1875;0;-0.02;0.04;0.43;-0.12;4.4;180
201.125;-1.125;0;-0.01;0.03;0.42;-0.12;4.45;180
200;-1.0625;-0.0625;-0.01;0.03;0.4;-0.12;4.5;180
199.0625;-1;-0.125;0;0.02;0.39;-0.11;4.55;180
198;-1;-0.1875;0.01;0.01;0.37;-0.11;4.6;180
196.9375;-1;-0.1875;0.01;-0.01;0.36;-0.11;4.64;180
196.125;-0.9375;-0.125;0.02;-0.02;0.34;-0.1;4.69;180
195.1875;-1;-0.125;0.02;-0.02;0.33;-0.1;4.74;180
194.25;-1;0;0.02;-0.03;0.32;-0.1;4.78;180
193.5;-1.0625;0;0.02;-0.03;0.3;-0.1;4.83;180
192.6875;-1.125;0.0625;0.02;-0.03;0.29;-0.09;4.88;180
191.875;-1.125;0.1875;0.02;-0.02;0.28;-0.09;4.93;180
191.0625;-1.1875;0.25;0.01;-0.01;0.26;-0.08;4.98;180
190.5;-1.1875;0.3125;0;0;0.25;-0.08;5.02;180
189.75;-1.125;0.3125;0;0.02;0.24;-0.08;5.07;180
189.125;-1.125;0.3125;0;0.03;0.22;-0.07;5.12;180
188.4375;-1.125;0.3125;-0.01;0.03;0.21;-0.07;5.17;180
188;-1.0625;0.25;-0.01;0.04;0.2;-0.07;5.21;180
187.375;-1.0625;0.125;-0.01;0.04;0.19;-0.07;5.26;180
186.875;-1;0.0625;-0.01;0.04;0.19;-0.07;5.31;180
186.3125;-1;0;-0.01;0.03;0.18;-0.06;5.36;180
185.9375;-1;-0.0625;-0.01;0.02;0.16;-0.06;5.41;180
185.4375;-0.9375;-0.125;0;0.01;0.15;-0.05;5.45;180
185;-0.9375;-0.125;0;-0.01;0.15;-0.05;5.5;180
184.6875;-0.9375;-0.125;0;-0.02;0.14;-0.05;5.54;180
184.3125;-0.9375;-0.0625;0.01;-0.03;0.13;-0.05;5.59;180
183.9375;-0.9375;0;0.01;-0.03;0.12;-0.04;5.64;180
183.625;-0.9375;0;0.01;-0.04;0.12;-0.04;5.68;180
183.3125;-0.9375;0.125;0.01;-0.03;0.12;-0.04;5.73;180
183;-0.9375;0.25;0.01;-0.03;0.11;-0.04;5.78;180
182.6875;-1;0.3125;0.01;-0.02;0.1;-0.04;5.83;180
182.4375;-1;0.375;0.01;-0.01;0.09;-0.04;5.88;180
182.1875;-1;0.4375;0.01;0.01;0.09;-0.04;5.93;180
181.9375;-1;0.4375;0;0.03;0.08;-0.03;5.98;180
181.6875;-1;0.375;0;0.03;0.07;-0.03;6.03;180
181.5;-1;0.3125;-0.01;0.04;0.07;-0.03;6.08;180
181.3125;-1;0.1875;0;0.04;0.06;-0.03;6.13;180
181.125;-1;0.0625;-0.01;0.04;0.06;-0.03;6.18;180
180.9375;-1;0;-0.01;0.03;0.06;-0.03;6.22;180
180.75;-1;-0.0625;-0.01;0.02;0.06;-0.03;6.27;180
180.625;-1;-0.0625;-0.01;0.01;0.05;-0.03;6.32;180
180.4375;-1;-0.125;-0.01;-0.01;0.05;-0.02;6.37;180
180.3125;-1;-0.125;0;-0.02;0.04;-0.02;6.42;180
180.1875;-1;-0.0625;0;-0.03;0.03;-0.02;6.46;180
180.125;-1;0;0;-0.03;0.03;-0.01;6.51;180
180;-1;0;0.01;-0.04;0.03;-0.02;6.57;180
179.9375;-1;0.125;0.01;-0.04;0.03;-0.01;6.61;180
179.875;-1;0.25;0.01;-0.03;0.03;-0.01;6.66;180
179.75;-1;0.375;0.01;-0.02;0.03;-0.02;6.71;180
179.6875;-1;0.4375;0.01;-0.01;0.02;-0.01;6.76;180
179.625;-1;0.4375;0.01;0.01;0.02;-0.01;6.81;180
179.5625;-1;0.4375;0;0.02;0.01;-0.01;6.85;180
179.5625;-1;0.375;0;0.03;0.01;-0.01;6.9;180
179.5;-1;0.3125;0;0.04;0.01;-0.01;6.95;180
179.5;-1;0.1875;0;0.04;0;0;6.99;180
179.5;-1;0.125;-0.01;0.04;0;0;7.04;180
179.5;-1;0;-0.01;0.03;0;0;7.09;180
179.5;-1;-0.0625;-0.01;0.02;0;0;7.14;180
179.5;-1;-0.0625;-0.01;0;0;0;7.19;180
179.5;-0.9375;-0.125;-0.01;-0.01;0;0;7.24;180
179.5;-0.9375;-0.125;-0.01;-0.02;0;0;7.28;180
179.5;-0.9375;-0.0625;-0.01;-0.03;0;0;7.33;180
179.5;-0.875;0;0;-0.04;0;0;7.38;180
179.5;-0.875;0.0625;0;-0.04;0;0;7.43;180
179.5;-0.875;0.125;0;-0.04;0;0;7.48;180
179.5;-0.875;0.25;0.01;-0.03;0;0;7.53;180
179.5;-0.875;0.3125;0.01;-0.02;0;0;7.57;180
179.5;-0.875;0.375;0.01;-0.01;0;0;7.62;180
179.5;-0.9375;0.4375;0.01;0.01;0;0;7.68;180
179.5;-1;0.4375;0.01;0.02;-0.01;0;7.72;180
179.5;-1;0.375;0.01;0.03;-0.01;0;7.77;180
179.5;-1;0.3125;0;0.04;-0.01;0;7.82;180
179.5;-1;0.1875;0;0.04;-0.01;0;7.87;180
179.5;-1;0.125;0;0.04;-0.01;0;7.92;180
179.5;-1;0;-0.01;0.03;-0.01;0;7.96;180
179.5;-1;0;-0.01;0.02;-0.01;0;8;180
179.5625;-1;-0.125;-0.01;0.01;-0.01;0;8.05;180
179.5625;-0.9375;-0.125;-0.01;-0.01;-0.01;0;8.1;180
179.5625;-0.9375;-0.125;-0.01;-0.02;-0.01;0;8.15;180
179.5625;-0.875;-0.0625;-0.01;-0.03;-0.01;0;8.2;180
179.5625;-0.875;0;-0.01;-0.04;-0.01;0;8.25;180
179.5625;-0.875;0;-0.01;-0.04;-0.01;0;8.29;180
179.5625;-0.875;0.125;0;-0.04;0;0;8.34;180
179.5625;-0.875;0.1875;0;-0.03;0;0;8.39;180
179.5625;-0.875;0.3125;0.01;-0.02;0;0;8.43;180
179.5625;-0.875;0.375;0.01;-0.01;-0.01;0;8.48;180
179.5625;-0.875;0.4375;0.02;0.01;-0.01;0;8.53;180
179.5625;-0.875;0.4375;0.02;0.02;0;0;8.58;180
179.5625;-0.9375;0.375;0.02;0.03;-0.01;0;8.65;180
179.5625;-1;0.3125;0.01;0.04;-0.01;0;8.68;180
179.5625;-1;0.1875;0;0.04;0;0;8.72;180
179.5625;-1;0.125;0;0.03;0;0;8.78;180
179.5625;-1;0.0625;-0.01;0.03;-0.01;0;8.82;180
179.5625;-1;0;-0.01;0.02;0;0;8.87;180
179.5625;-1;-0.0625;-0.02;0.01;0;0;8.92;180
179.5625;-0.9375;-0.0625;-0.02;-0.01;0;0;8.97;180
179.5625;-0.9375;-0.0625;-0.02;-0.02;0;0;9.01;180
179.5625;-0.875;-0.0625;-0.01;-0.03;0;0;9.06;180
179.5625;-0.8125;0;-0.01;-0.03;0;0;9.11;180
179.5625;-0.8125;0.0625;-0.01;-0.04;-0.01;0;9.16;180
179.5625;-0.8125;0.125;0;-0.04;-0.01;0;9.2;180
179.5625;-0.8125;0.25;0;-0.03;-0.01;0;9.25;180
179.5625;-0.8125;0.375;0.01;-0.02;-0.01;0;9.3;180
179.5625;-0.8125;0.4375;0.01;-0.01;-0.01;0;9.35;180
179.5625;-0.8125;0.4375;0.02;0.01;-0.01;0;9.4;180
179.5625;-0.8125;0.4375;0.02;0.02;-0.01;0;9.46;180
179.5625;-0.875;0.4375;0.02;0.03;-0.01;0;9.5;180
179.625;-0.9375;0.375;0.01;0.03;-0.01;0;9.54;180
179.625;-1;0.3125;0.01;0.04;-0.01;0;9.59;180
179.625;-1;0.1875;0;0.03;-0.01;0;9.64;180
179.625;-1;0.125;0;0.03;-0.01;0;9.69;180
179.625;-1;0;-0.01;0.02;-0.01;0;9.74;180
179.625;-1;0;-0.02;0.01;-0.01;0;9.78;180
179.625;-0.9375;0;-0.02;0;-0.01;0;9.83;180
179.625;-0.9375;0;-0.02;-0.02;-0.01;0;9.88;180
179.625;-0.875;0;-0.02;-0.03;-0.01;0;9.93;180
179.625;-0.8125;0;-0.02;-0.03;0;0;9.98;180
179.625;-0.75;0.125;-0.01;-0.04;0;0;10.03;180
179.625;-0.6875;0.1875;0;-0.03;0;0;10.07;180
179.625;-0.6875;0.3125;0;-0.03;0;0;10.12;180
179.625;-0.6875;0.375;0.01;-0.02;0;0;10.17;180
179.625;-0.6875;0.4375;0.01;-0.01;-0.01;0;10.22;180
179.625;-0.75;0.5;0.02;0.01;-0.01;0;10.27;180
179.625;-0.75;0.5;0.02;0.02;-0.01;0;10.31;180
179.625;-0.8125;0.4375;0.02;0.02;-0.01;0;10.36;180
179.625;-0.875;0.4375;0.02;0.03;-0.01;0;10.41;180
179.625;-0.9375;0.3125;0.01;0.04;-0.01;0;10.46;180
179.625;-1;0.25;0.01;0.03;-0.01;0;10.51;180
179.625;-1;0.1875;0;0.03;-0.01;0;10.55;180
179.6875;-1;0.0625;-0.01;0.02;-0.01;0;10.6;180
179.6875;-1;0;-0.01;0;-0.01;0;10.65;180
179.6875;-0.9375;0;-0.02;-0.01;0;0;10.7;180
179.6875;-0.9375;0;-0.03;-0.02;0;0;10.75;180
179.6875;-0.875;0.0625;-0.02;-0.03;0;0;10.8;180
179.6875;-0.8125;0.125;-0.02;-0.03;-0.01;0;10.84;180
179.6875;-0.75;0.1875;-0.02;-0.03;0;0;10.89;180
179.6875;-0.6875;0.25;-0.01;-0.04;0;0;10.94;180
179.6875;-0.625;0.375;0;-0.02;0;0;10.99;180
179.6875;-0.625;0.4375;0.01;-0.02;0;0;11.04;180
179.6875;-0.625;0.5;0.02;-0.01;0;0;11.09;180
179.6875;-0.6875;0.5;0.02;0;0;0;11.14;180
179.6875;-0.6875;0.5;0.03;0.01;0;0;11.19;180
179.6875;-0.75;0.5;0.02;0.02;-0.01;0;11.23;180
179.6875;-0.8125;0.4375;0.02;0.03;-0.01;0;11.28;180
179.6875;-0.9375;0.375;0.02;0.03;-0.01;0;11.33;180
179.6875;-0.9375;0.3125;0.01;0.03;0;0;11.38;180
179.6875;-1;0.25;0;0.02;0;0;11.42;180
179.6875;-1;0.125;-0.01;0.02;-0.01;0;11.47;180
179.6875;-1;0.125;-0.01;0.01;-0.01;0;11.52;180
179.6875;-1;0.0625;-0.02;-0.01;0;0;11.56;180
179.6875;-0.9375;0.0625;-0.03;-0.02;0;0;11.61;180
179.6875;-0.875;0.125;-0.03;-0.03;0;0;11.66;180
179.6875;-0.8125;0.1875;-0.03;-0.03;0;0;11.72;180
179.6875;-0.75;0.25;-0.02;-0.03;0;0;11.76;180
179.6875;-0.6875;0.3125;-0.02;-0.03;-0.01;0;11.81;180
179.6875;-0.625;0.4375;-0.01;-0.02;0;0;11.85;180
179.6875;-0.625;0.5;0.01;-0.01;0;0;11.9;180
179.6875;-0.625;0.5;0.02;-0.01;0;0;11.95;180
179.6875;-0.625;0.5625;0.02;0.01;0;0;12;180
179.6875;-0.625;0.5625;0.03;0.01;0;0;12.05;180
179.6875;-0.75;0.5;0.03;0.02;0;0;12.1;180
179.6875;-0.8125;0.4375;0.03;0.03;-0.01;0;12.15;180
179.6875;-0.875;0.375;0.02;0.03;-0.01;0.01;12.2;180
179.6875;-0.9375;0.3125;0.02;0.03;-0.01;0;12.25;180
179.6875;-1;0.25;0;0.02;-0.01;0;12.29;180
179.75;-1;0.1875;-0.01;0.01;-0.01;0;12.35;180
179.75;-1;0.125;-0.01;0;0;0;12.39;180
179.75;-1;0.125;-0.02;-0.01;0;0;12.44;180
179.75;-0.9375;0.125;-0.03;-0.02;0;0;12.49;180
179.75;-0.875;0.1875;-0.03;-0.02;0;0;12.54;180
179.75;-0.8125;0.25;-0.03;-0.03;-0.01;0;12.58;180
179.75;-0.6875;0.3125;-0.02;-0.03;0;0;12.63;180
179.75;-0.625;0.375;-0.02;-0.03;-0.01;0;12.67;180
179.75;-0.625;0.4375;-0.01;-0.02;-0.01;0;12.72;180
179.75;-0.5625;0.5;0;-0.01;-0.01;0;12.77;180
179.75;-0.5625;0.5625;0.01;0;-0.01;0;12.81;180
179.75;-0.5625;0.5625;0.02;0.01;-0.01;0;12.87;180
179.75;-0.625;0.5625;0.03;0.02;0;0;12.92;180
179.75;-0.6875;0.5;0.03;0.02;-0.01;0;12.96;180
179.75;-0.75;0.4375;0.03;0.03;0;0;13.01;180
179.75;-0.875;0.375;0.03;0.03;-0.01;0;13.06;180
179.75;-0.9375;0.3125;0.02;0.02;-0.01;0;13.11;180
179.75;-1;0.25;0.01;0.01;-0.01;0;13.16;180
179.75;-1;0.1875;0;0.01;0;0;13.21;180
179.75;-1;0.1875;-0.01;0;0;0;13.26;180
179.75;-1;0.1875;-0.02;-0.01;0;0;13.3;180
179.75;-0.9375;0.1875;-0.03;-0.02;0;0;13.35;180
179.75;-0.875;0.1875;-0.03;-0.02;0;0;13.4;180
179.75;-0.8125;0.25;-0.03;-0.02;0;0;13.45;180
179.75;-0.75;0.3125;-0.03;-0.03;0;0;13.5;180
179.75;-0.625;0.375;-0.02;-0.03;0;0;13.55;180
179.75;-0.5625;0.4375;-0.01;-0.02;-0.01;0;13.59;180
179.75;-0.5625;0.5;0;-0.01;-0.01;0;13.64;180
179.75;-0.5625;0.5625;0.01;0;-0.01;0;13.69;180
179.75;-0.5625;0.5625;0.02;0.01;-0.01;0;13.74;180
179.75;-0.5625;0.5625;0.03;0.02;-0.01;0;13.79;180
179.8125;-0.625;0.5;0.03;0.02;-0.01;0;13.83;180
179.8125;-0.75;0.4375;0.03;0.03;-0.01;0;13.88;180
179.8125;-0.8125;0.375;0.03;0.02;-0.01;0;13.93;180
179.8125;-0.875;0.3125;0.02;0.02;-0.01;0;13.97;180
179.8125;-0.9375;0.25;0.01;0.01;-0.01;0;14.02;180
179.8125;-1;0.25;0;0;0;0;14.07;180
179.8125;-1;0.1875;-0.01;0;-0.01;0;14.12;180
179.8125;-1;0.1875;-0.02;-0.01;0;0;14.17;180
179.8125;-0.9375;0.1875;-0.03;-0.02;-0.01;0;14.22;180
179.8125;-0.875;0.25;-0.03;-0.02;-0.01;0;14.27;180
179.8125;-0.8125;0.3125;-0.03;-0.03;-0.01;0;14.32;180
179.8125;-0.6875;0.375;-0.03;-0.02;-0.01;0;14.37;180
179.8125;-0.625;0.4375;-0.02;-0.02;0;0;14.42;180
179.8125;-0.5625;0.5;-0.01;-0.01;0;0;14.47;180
179.8125;-0.5;0.5;0;0;0;0;14.51;180
179.8125;-0.5;0.5625;0.01;0;0;0;14.56;180
179.8125;-0.5;0.5625;0.02;0.01;0;0;14.61;180
179.8125;-0.5625;0.5625;0.03;0.02;-0.01;0;14.66;180
179.8125;-0.625;0.5;0.03;0.02;-0.01;0;14.71;180
179.8125;-0.6875;0.4375;0.03;0.02;-0.01;0;14.76;180
179.8125;-0.8125;0.375;0.03;0.02;-0.01;0;14.81;180
179.8125;-0.875;0.3125;0.03;0.01;0;0;14.85;180
179.8125;-0.9375;0.3125;0.01;0.01;0;0;14.9;180
179.8125;-1;0.3125;0;0;0;0;14.95;180
179.8125;-1;0.3125;-0.01;-0.01;0;0;15;180
179.8125;-1;0.3125;-0.02;-0.01;0;0;15.04;180
179.8125;-0.9375;0.3125;-0.03;-0.02;0;0;15.09;180
179.8125;-0.875;0.375;-0.03;-0.02;0;0;15.14;180
179.8125;-0.8125;0.375;-0.04;-0.02;0;0;15.18;180
179.8125;-0.75;0.4375;-0.03;-0.02;0;0;15.23;180
179.8125;-0.625;0.5;-0.02;-0.01;0;0;15.28;180
179.8125;-0.5625;0.5625;-0.02;-0.01;0;0;15.33;180
179.8125;-0.5;0.5625;-0.01;0;-0.01;0;15.38;180
179.8125;-0.5;0.5625;0.01;0.01;-0.01;0;15.43;180
179.8125;-0.5;0.5625;0.02;0.01;0;0;15.48;180
179.8125;-0.5;0.5625;0.03;0.02;0;0;15.53;180
179.8125;-0.5625;0.5;0.03;0.02;-0.01;0;15.58;180
179.8125;-0.625;0.4375;0.03;0.02;-0.01;0;15.63;180
179.8125;-0.75;0.375;0.03;0.02;-0.01;0;15.67;180
179.8125;-0.8125;0.375;0.03;0.01;0;0;15.72;180
179.8125;-0.9375;0.3125;0.02;0.01;0;0;15.77;180
179.8125;-1;0.3125;0.01;-0.01;0;0;15.82;180
179.8125;-1;0.3125;-0.01;-0.01;-0.01;0;15.86;180
179.8125;-1;0.3125;-0.02;-0.02;-0.01;0;15.91;180
179.8125;-0.9375;0.375;-0.03;-0.02;-0.01;0;15.96;180
179.8125;-0.875;0.4375;-0.03;-0.02;0;0;16.01;180
179.8125;-0.8125;0.4375;-0.04;-0.02;0;0;16.06;180
179.8125;-0.6875;0.5;-0.03;-0.01;0;0;16.11;180
179.8125;-0.625;0.5625;-0.03;-0.01;0;0;16.16;180
179.8125;-0.5;0.5625;-0.01;0;0;0;16.22;180
179.8125;-0.5;0.5625;0;0;-0.01;0;16.26;180
179.8125;-0.4375;0.5625;0.01;0.01;0;0;16.31;180
179.8125;-0.4375;0.5625;0.02;0.02;-0.01;0;16.36;180
179.8125;-0.5;0.5625;0.03;0.02;-0.01;0;16.4;180
179.8125;-0.5625;0.5;0.03;0.02;-0.01;0;16.45;180
179.8125;-0.625;0.4375;0.03;0.02;0;0;16.49;180
179.8125;-0.75;0.4375;0.03;0.02;0;0;16.54;180
179.8125;-0.8125;0.375;0.03;0.01;0;0;16.59;180
179.8125;-0.9375;0.375;0.02;0;-0.01;0;16.64;180
179.8125;-1;0.375;0.01;-0.01;0;0;16.69;180
179.8125;-1;0.375;-0.01;-0.01;-0.01;0;16.74;180
179.8125;-1;0.375;-0.02;-0.02;-0.01;0;16.79;180
179.8125;-1;0.4375;-0.03;-0.02;0;0;16.84;180
179.8125;-0.875;0.5;-0.03;-0.02;-0.01;0;16.88;180
179.8125;-0.8125;0.5;-0.03;-0.01;-0.01;0;16.93;180
179.8125;-0.6875;0.5625;-0.03;-0.01;0;0;16.98;180
179.8125;-0.625;0.625;-0.03;-0.01;-0.01;0;17.03;180
179.8125;-0.5625;0.625;-0.02;0;-0.01;0;17.07;180
179.8125;-0.5;0.625;-0.01;0.01;0;0;17.12;180
179.8125;-0.4375;0.625;0;0.01;-0.01;0;17.17;180
179.8125;-0.4375;0.625;0.02;0.01;-0.01;0;17.22;180
179.8125;-0.4375;0.5625;0.03;0.02;-0.01;0;17.27;180
179.8125;-0.5;0.5;0.03;0.02;-0.01;0;17.32;180
179.8125;-0.625;0.4375;0.04;0.02;-0.01;0;17.36;180
179.8125;-0.6875;0.4375;0.03;0.01;-0.01;0;17.41;180
179.8125;-0.8125;0.4375;0.03;0;-0.01;0;17.46;180
179.8125;-0.875;0.4375;0.02;0;-0.01;0.01;17.5;180
179.875;-0.9375;0.4375;0.01;-0.01;-0.01;0;17.55;180
179.875;-1;0.4375;0;-0.01;-0.01;0;17.6;180
179.875;-1;0.4375;-0.01;-0.02;-0.01;0;17.65;180
179.875;-1;0.5;-0.03;-0.02;0;0;17.69;180
179.875;-0.875;0.5625;-0.03;-0.02;0;0;17.75;180
179.875;-0.8125;0.5625;-0.04;-0.01;0;0;17.79;180
179.875;-0.75;0.625;-0.03;-0.01;0;0;17.84;180
179.875;-0.625;0.625;-0.03;0;0;0;17.89;180
179.875;-0.5625;0.625;-0.02;0.01;0;0;17.94;180
179.875;-0.5;0.625;-0.01;0.01;0;0;17.99;180
179.875;-0.4375;0.625;0;0.02;-0.01;0;18.04;180
179.875;-0.4375;0.625;0.02;0.02;0;0;18.08;180
179.875;-0.4375;0.5625;0.02;0.02;0;0;18.13;180
179.875;-0.5;0.5;0.03;0.02;-0.01;0;18.19;180
179.875;-0.5625;0.4375;0.04;0.01;-0.01;0;18.23;180
179.875;-0.6875;0.375;0.03;0;-0.01;0;18.28;180
179.875;-0.75;0.375;0.03;0;0;0;18.33;180
179.875;-0.875;0.375;0.02;-0.01;0;0;18.38;180
179.875;-0.9375;0.375;0.01;-0.02;-0.01;0;18.43;180
179.875;-1;0.4375;-0.01;-0.02;0;0;18.47;180
179.875;-1;0.5;-0.02;-0.02;0;0;18.52;180
179.875;-0.9375;0.5625;-0.03;-0.02;0;0;18.58;180
179.875;-0.875;0.5625;-0.03;-0.02;0;0;18.62;180
179.875;-0.8125;0.625;-0.03;-0.01;0;0;18.67;180
179.875;-0.6875;0.6875;-0.03;0;0;0;18.71;180
179.875;-0.625;0.6875;-0.03;0;0;0;18.76;180
179.875;-0.5625;0.6875;-0.02;0.01;0;0;18.81;180
179.875;-0.4375;0.6875;-0.01;0.02;-0.01;0;18.86;180
179.875;-0.4375;0.625;0;0.02;-0.01;0;18.9;180
179.875;-0.4375;0.5625;0.01;0.02;-0.01;0;18.95;180
179.875;-0.4375;0.5;0.02;0.02;-0.01;0;19;180
179.875;-0.5;0.4375;0.03;0.01;-0.01;0;19.05;180
179.875;-0.5625;0.4375;0.04;0.01;-0.01;0;19.1;180
179.875;-0.625;0.375;0.04;0;0;0;19.15;180
179.875;-0.75;0.375;0.03;-0.01;-0.01;0;19.19;180
179.875;-0.875;0.375;0.02;-0.01;0;0;19.24;180
179.875;-0.9375;0.375;0.01;-0.02;0;0;19.29;180
179.875;-0.9375;0.4375;0;-0.02;0;0;19.34;180
179.875;-0.9375;0.5;-0.01;-0.02;-0.01;0;19.39;180
179.875;-0.9375;0.5625;-0.02;-0.02;0;0;19.43;180
179.875;-0.875;0.625;-0.03;-0.02;0;0;19.48;180
179.875;-0.8125;0.6875;-0.03;-0.01;-0.01;0;19.53;180
179.875;-0.75;0.6875;-0.03;0;0;0;19.58;180
179.875;-0.625;0.6875;-0.03;0.01;0;0;19.63;180
179.875;-0.5625;0.6875;-0.02;0.02;0;0;19.68;180
179.875;-0.5;0.6875;-0.01;0.02;0;0;19.73;180
179.875;-0.4375;0.625;0;0.03;0;0;19.78;180
179.875;-0.4375;0.5625;0.01;0.03;-0.01;0;19.83;180
179.875;-0.4375;0.5;0.02;0.02;-0.01;0;19.87;180
179.875;-0.5;0.4375;0.03;0.02;0;0;19.92;180
179.875;-0.5625;0.375;0.03;0.01;0;0;19.96;180
179.875;-0.6875;0.375;0.03;0;0;0;20.01;180
179.875;-0.75;0.375;0.03;-0.01;0;0;20.06;180
179.875;-0.8125;0.375;0.02;-0.02;0;0;20.11;180
179.875;-0.875;0.375;0.01;-0.02;0;0;20.15;180
179.875;-0.9375;0.4375;0;-0.03;0;0;20.2;180
179.875;-0.9375;0.5;-0.01;-0.03;0;0;20.25;180
179.875;-0.9375;0.625;-0.02;-0.02;0;0;20.3;180
179.875;-0.875;0.6875;-0.03;-0.02;0;0;20.35;180
179.875;-0.8125;0.75;-0.03;-0.01;0;0;20.4;180
179.875;-0.75;0.75;-0.03;0;0;0;20.45;180
179.875;-0.6875;0.75;-0.03;0.01;-0.01;0;20.5;180
179.875;-0.5625;0.75;-0.03;0.02;-0.01;0;20.54;180
179.875;-0.5;0.6875;-0.01;0.03;-0.01;0;20.59;180
179.875;-0.4375;0.625;0;0.03;-0.01;0;20.64;180
179.875;-0.4375;0.5625;0.01;0.03;-0.01;0;20.7;180
179.875;-0.4375;0.5;0.02;0.02;0;0;20.73;180
179.875;-0.5;0.4375;0.03;0.02;0;0;20.78;180
179.875;-0.5625;0.375;0.03;0.01;0;0;20.83;180
179.875;-0.625;0.375;0.03;0;-0.01;0;20.87;180
179.875;-0.6875;0.375;0.03;-0.01;-0.01;0;20.92;180
179.875;-0.75;0.375;0.02;-0.02;0;0;20.97;180
179.875;-0.8125;0.4375;0.02;-0.02;-0.01;0;21.01;180
179.875;-0.875;0.5;0;-0.03;0;0;21.06;180
179.875;-0.9375;0.5625;-0.01;-0.03;0;0;21.11;180
179.875;-0.9375;0.625;-0.02;-0.02;0;0;21.16;180
179.875;-0.875;0.6875;-0.02;-0.02;0;0;21.21;180
179.875;-0.8125;0.75;-0.03;-0.01;0;0;21.27;180
179.875;-0.75;0.8125;-0.03;0;0;0;21.3;180
179.875;-0.6875;0.8125;-0.03;0.02;0;0;21.35;180
179.875;-0.5625;0.8125;-0.02;0.02;0;0;21.4;180
179.875;-0.5;0.75;-0.01;0.03;0;0;21.45;180
179.875;-0.4375;0.6875;0;0.03;0;0;21.5;180
179.875;-0.4375;0.5625;0.01;0.03;0;0;21.55;180
179.875;-0.4375;0.5;0.02;0.02;0;0;21.59;180
179.875;-0.5;0.4375;0.03;0.01;-0.01;0;21.64;180
179.875;-0.5625;0.375;0.03;0.01;-0.01;0;21.69;180
179.875;-0.625;0.375;0.03;-0.01;-0.01;0.01;21.74;180
179.9375;-0.6875;0.375;0.03;-0.02;-0.01;0;21.79;180
179.9375;-0.75;0.375;0.02;-0.02;-0.01;0;21.84;180
179.9375;-0.8125;0.4375;0.01;-0.03;0;0;21.89;180
179.9375;-0.875;0.5;0;-0.04;0;0;21.94;180
179.9375;-0.875;0.625;-0.01;-0.03;0;0;21.99;180
179.9375;-0.875;0.6875;-0.02;-0.03;0;0;22.05;180
179.9375;-0.875;0.8125;-0.03;-0.02;-0.01;0;22.09;180
179.9375;-0.8125;0.875;-0.03;0;-0.01;0.01;22.14;180
179.9375;-0.6875;0.875;-0.03;0.01;-0.01;0.01;22.18;180
180;-0.625;0.875;-0.03;0.02;-0.01;0.01;22.23;180
180;-0.5625;0.8125;-0.02;0.03;-0.01;0;22.28;180
180.0625;-0.5;0.75;-0.01;0.03;-0.01;0;22.32;180
180.0625;-0.4375;0.6875;0;0.03;0;0;22.37;180
180.0625;-0.4375;0.5625;0.01;0.03;-0.01;0;22.42;180
180;-0.4375;0.5;0.01;0.02;-0.01;0;22.47;180
180;-0.4375;0.4375;0.02;0.01;-0.01;0;22.52;180
180.0625;-0.5;0.375;0.03;0;-0.01;0;22.57;180
180.0625;-0.5625;0.375;0.03;-0.01;-0.01;0;22.62;180
180.0625;-0.625;0.375;0.03;-0.02;-0.01;0;22.67;180
180.0625;-0.75;0.375;0.02;-0.03;0;0;22.71;180
180.0625;-0.8125;0.5;0.01;-0.03;0;0;22.76;180
180.0625;-0.875;0.5625;0;-0.04;0;0;22.81;180
180.0625;-0.875;0.625;-0.01;-0.03;0;0;22.86;180
180.0625;-0.875;0.75;-0.02;-0.03;0;0;22.91;180
180.0625;-0.8125;0.8125;-0.02;-0.01;-0.01;0;22.95;180
180.0625;-0.8125;0.875;-0.03;0;0;0;23;180
180.0625;-0.75;0.875;-0.03;0;0;0;23.05;180
180.0625;-0.625;0.875;-0.02;0.02;0;0;23.1;180
180.0625;-0.5625;0.875;-0.02;0.03;0;0;23.14;180
180.0625;-0.5;0.8125;-0.01;0.04;-0.01;0;23.2;180
180.0625;-0.5;0.6875;-0.01;0.04;-0.01;0;23.24;180
180.0625;-0.5;0.625;0;0.04;-0.01;0;23.28;180
180.0625;-0.5;0.5;0.01;0.02;0;0;23.33;180
180.0625;-0.5;0.4375;0.02;0.01;-0.01;0;23.38;180
180.0625;-0.5625;0.375;0.02;0;0;0;23.43;180
180.0625;-0.625;0.375;0.03;-0.01;-0.01;0;23.47;180
180.0625;-0.6875;0.375;0.02;-0.02;-0.01;0;23.52;180
180.0625;-0.75;0.4375;0.02;-0.03;0;0;23.57;180
180.0625;-0.8125;0.5;0.01;-0.04;0.01;0;23.62;180
180.0625;-0.8125;0.5625;0;-0.04;0.01;0;23.67;180
180.0625;-0.8125;0.6875;-0.01;-0.04;0;0;23.72;180
180.0625;-0.8125;0.8125;-0.01;-0.02;0;0;23.77;180
180.0625;-0.8125;0.875;-0.02;-0.01;-0.01;0;23.82;180
180.0625;-0.8125;0.9375;-0.02;0;0;0;23.87;180
180.0625;-0.75;0.9375;-0.02;0.01;0;0;23.92;180
180.0625;-0.6875;0.9375;-0.02;0.03;0;0;23.98;180
180.0625;-0.625;0.875;-0.02;0.04;0;0;24.02;180
180.0625;-0.5625;0.75;-0.01;0.04;0;0;24.07;180
180.0625;-0.5;0.6875;0;0.04;-0.01;0.01;24.12;180
180.0625;-0.5;0.5625;0.01;0.03;-0.01;0;24.16;180
180.0625;-0.5;0.4375;0.01;0.02;-0.01;0;24.21;180
180.0625;-0.5;0.375;0.02;0.01;0;0;24.26;180
180.0625;-0.5625;0.3125;0.02;0;0;0;24.31;180
180.0625;-0.625;0.3125;0.02;-0.02;0;0;24.36;180
180.0625;-0.625;0.375;0.02;-0.03;0;0;24.4;180
180.0625;-0.6875;0.4375;0.02;-0.04;-0.01;0;24.45;180
180.0625;-0.75;0.5;0.01;-0.04;0;0;24.5;180
180.0625;-0.8125;0.625;0;-0.04;0;0;24.55;180
180.0625;-0.8125;0.75;-0.01;-0.04;0;0;24.6;180
180.0625;-0.8125;0.875;-0.01;-0.03;0.01;0;24.65;180
180.0625;-0.8125;0.9375;-0.02;-0.01;0;0;24.7;180
180.0625;-0.75;1;-0.02;0;0;0;24.74;180
180.0625;-0.6875;1;-0.02;0.02;0;0;24.79;180
180.0625;-0.625;1;-0.02;0.03;0;0;24.84;180
180.0625;-0.5625;0.9375;-0.02;0.04;-0.01;0;24.88;180
180.0625;-0.5625;0.8125;-0.01;0.04;0;0;24.93;180
180.0625;-0.5;0.6875;0;0.04;0;0;24.98;180
180.0625;-0.5;0.5625;0;0.03;0;0;25.03;180
180.0625;-0.5;0.5;0.01;0.02;0;0;25.08;180
180.0625;-0.5;0.4375;0.01;0.01;0;0;25.13;180
180.0625;-0.5625;0.375;0.02;-0.01;0;0;25.18;180
180.0625;-0.625;0.375;0.02;-0.02;0;0;25.23;180
180.0625;-0.6875;0.4375;0.02;-0.03;0;0;25.28;180
180.0625;-0.6875;0.5;0.01;-0.04;0;0;25.32;180
180.0625;-0.75;0.625;0.01;-0.05;0;0;25.37;180
180.0625;-0.75;0.75;0;-0.04;0;0;25.42;180
180.0625;-0.75;0.8125;0;-0.03;-0.01;0;25.47;180
180.0625;-0.75;0.9375;-0.01;-0.03;-0.01;0;25.52;180
180.0625;-0.75;1;-0.01;-0.01;0;0;25.57;180
180.0625;-0.75;1.0625;-0.02;0.01;0;0;25.62;180
180.0625;-0.6875;1.0625;-0.02;0.02;0;0;25.67;180
180.0625;-0.625;1;-0.02;0.03;0;0;25.72;180
180.0625;-0.5625;0.9375;-0.01;0.04;0;0;25.76;180
180.0625;-0.5625;0.875;-0.01;0.05;0;0;25.81;180
180.0625;-0.5625;0.75;0;0.04;0;0;25.87;180
180.0625;-0.5625;0.625;0;0.03;-0.01;0;25.91;180
180.0625;-0.5625;0.5;0.01;0.02;0;0;25.96;180
180.0625;-0.5625;0.4375;0.01;0.01;0;0;26.01;180
180.0625;-0.5625;0.375;0.01;-0.01;0;0;26.06;180
180.0625;-0.625;0.375;0.01;-0.03;0.01;0;26.11;180
180.0625;-0.6875;0.4375;0.01;-0.04;0;0;26.16;180
180.0625;-0.6875;0.5625;0.01;-0.05;0;0;26.21;180
180.0625;-0.6875;0.625;0;-0.05;0;0;26.25;180
180.0625;-0.6875;0.75;0;-0.04;0;0;26.3;180
180.0625;-0.6875;0.9375;0;-0.03;0;0;26.35;180
180.0625;-0.6875;1;-0.01;-0.03;0;0;26.4;180
180.0625;-0.6875;1.0625;-0.01;-0.01;0;0;26.44;180
180.0625;-0.6875;1.125;-0.01;0.01;0;0;26.49;180
180.0625;-0.625;1.125;-0.01;0.03;-0.01;0;26.54;180
180.0625;-0.625;1.0625;-0.01;0.04;0;0;26.58;180
180.0625;-0.5625;1;-0.01;0.04;-0.01;0;26.63;180
180.0625;-0.5625;0.875;0;0.04;0;0;26.68;180
180.0625;-0.5625;0.75;0;0.05;0;0;26.73;180
180.0625;-0.5625;0.625;0;0.03;0;0;26.78;180
180.0625;-0.5625;0.5;0.01;0.02;-0.01;0;26.83;180
180.0625;-0.5625;0.4375;0.01;0;-0.01;0;26.87;180
180.0625;-0.5625;0.4375;0.01;-0.01;0;0;26.92;180
180.0625;-0.5625;0.4375;0.01;-0.03;0;0;26.97;180
180.0625;-0.5625;0.5;0.01;-0.04;0;0;27.02;180
180.0625;-0.5625;0.5625;0;-0.05;0;0;27.07;180
180.0625;-0.5625;0.6875;0;-0.05;0;0;27.12;180
180.0625;-0.5625;0.8125;0;-0.05;0;0;27.17;180
