Yaw;Pitch;Roll;Ang_vel_x;Ang_vel_y;Ang_vel_z;u(z);t;setpoint
356.75;0.5;-1.125;0.02;-0.02;-0.02;-662.8;0.04;180
356.75;0.375;-1.0625;0.03;-0.03;-0.01;-547.9;0.09;180
356.8125;0.3125;-1;0.03;-0.04;-0.01;-557;0.14;180
356.8125;0.25;-0.875;0.03;-0.05;-0.01;-565.8;0.19;180
356.8125;0.125;-0.75;0.03;-0.04;-0.01;-574.6;0.24;180
356.875;0.0625;-0.625;0.02;-0.03;-0.02;-583.7;0.29;180
356.9375;0;-0.5625;0.01;-0.02;-0.02;-592.7;0.34;180
357;0;-0.5;0;-0.01;-0.02;-601.8;0.39;180
357;0;-0.5;-0.01;0;-0.02;-610.6;0.44;180
357.0625;0.0625;-0.5;-0.03;0.02;-0.01;-619.7;0.49;180
356.875;0.125;-0.5625;-0.02;0.03;0.15;-627.8;0.54;180
355.8125;0.125;-0.5;-0.03;0.03;0.55;-632.8;0.59;180
354.0625;0.125;-0.5;-0.02;0.02;1.02;-635.7;0.64;180
350.6875;0.0625;-0.4375;-0.01;0.01;1.41;-633;0.69;180
346.125;0;-0.4375;-0.01;0.01;1.81;-626.8;0.74;180
340.5625;0;-0.4375;0.02;0.01;2.13;-617.4;0.79;180
334.25;-0.125;-0.4375;0.04;0.01;2.34;-605.7;0.84;180
327.625;-0.3125;-0.4375;0.06;0.01;2.44;-593;0.88;180
320.75;-0.5625;-0.4375;0.09;0.02;2.47;-579.2;0.94;180
313.9375;-0.9375;-0.4375;0.09;0.02;2.47;-565.5;0.98;180
307.125;-1.3125;-0.375;0.12;0.04;2.43;-551.4;1.03;180
300.4375;-1.6875;-0.3125;0.12;0.06;2.39;-537.5;1.08;180
295.1875;-2;-0.3125;0.12;0.07;2.35;-528.5;1.13;180
288.6875;-2.3125;-0.25;0.09;0.08;2.3;-513.6;1.18;180
282.375;-2.5625;-0.25;0.07;0.11;2.27;-499.9;1.23;180
276.125;-2.8125;-0.3125;0.05;0.13;2.24;-486;1.27;180
269.9375;-2.9375;-0.375;0.03;0.14;2.21;-471.9;1.32;180
265.0625;-3;-0.4375;0.01;0.15;2.18;-462.5;1.37;180
259.0625;-3.0625;-0.5625;-0.01;0.16;2.15;-447.7;1.41;180
253.1875;-3.0625;-0.6875;-0.03;0.16;2.09;-433.8;1.46;180
248.625;-3.0625;-0.75;-0.04;0.15;2.05;-424.4;1.51;180
243.0625;-3;-0.875;-0.06;0.14;1.98;-410.2;1.55;180
237.625;-2.875;-0.9375;-0.06;0.11;1.92;-396.9;1.61;180
233.4375;-2.8125;-0.875;-0.06;0.11;1.92;-387.9;1.65;180
228.375;-2.6875;-0.8125;-0.07;0.08;1.85;-374.5;1.7;180
223.4375;-2.5625;-0.6875;-0.07;0.02;1.74;-361.9;1.74;180
218.75;-2.375;-0.5;-0.07;-0.01;1.67;-350;1.79;180
215.0625;-2.1875;-0.3125;-0.06;-0.04;1.62;-341.4;1.84;180
210.6875;-2;0;-0.05;-0.05;1.58;-329.3;1.89;180
206.4375;-1.875;0.1875;-0.03;-0.06;1.5;-317.9;1.94;180
202.3125;-1.75;0.5;-0.01;-0.07;1.45;-306.8;1.99;180
198.375;-1.625;0.8125;0.01;-0.06;1.41;-296;2.04;180
195.25;-1.625;1;0.03;-0.05;1.38;-288;2.08;180
191.5;-1.625;1.1875;0.06;-0.02;1.35;-276.9;2.13;180
187.8125;-1.6875;1.3125;0.09;0;1.31;-266.2;2.18;180
185;-1.75;1.3125;0.1;0.02;1.26;-258.7;2.22;180
181.5;-1.9375;1.3125;0.11;0.05;1.22;-247.7;2.27;180
178.1875;-2.125;1.25;0.11;0.07;1.16;-237.8;2.31;180
175.6875;-2.25;1.1875;0.11;0.07;1.16;-230.7;2.36;180
172.625;-2.375;1;0.08;0.09;1.07;-220.8;2.41;180
169.75;-2.4375;0.8125;0.05;0.1;1.02;-211.7;2.46;180
167.5625;-2.5;0.6875;0.01;0.1;0.97;-205;2.5;180
164.9375;-2.375;0.5;-0.02;0.1;0.92;-196.1;2.55;180
162.375;-2.25;0.3125;-0.05;0.09;0.87;-187.6;2.6;180
160;-2;0.125;-0.08;0.07;0.84;-179.6;2.65;180
157.75;-1.6875;0.0625;-0.1;0.05;0.8;-171.8;2.7;180
155.625;-1.375;0;-0.11;0.02;0.76;-164.3;2.75;180
153.5625;-1;0;-0.11;0;0.74;-156.8;2.8;180
151.5625;-0.6875;0.0625;-0.1;-0.02;0.71;-149.5;2.85;180
149.625;-0.4375;0.1875;-0.07;-0.04;0.69;-142.2;2.9;180
148.0625;-0.25;0.25;-0.03;-0.06;0.68;-136.2;2.95;180
146.25;-0.1875;0.4375;0;-0.06;0.65;-128.9;3;180
144.4375;-0.1875;0.625;0.03;-0.07;0.64;-121.6;3.05;180
142.75;-0.25;0.75;0.06;-0.06;0.6;-114.8;3.09;180
141.125;-0.4375;0.9375;0.09;-0.04;0.57;-108;3.14;180
139.625;-0.6875;1;0.11;-0.03;0.53;-101.6;3.19;180
138.1875;-0.9375;1.0625;0.12;0;0.5;-95.2;3.24;180
137.125;-1.1875;1.0625;0.12;0.02;0.46;-90.2;3.29;180
135.875;-1.4375;1;0.1;0.04;0.43;-84.1;3.34;180
134.75;-1.625;0.875;0.07;0.06;0.39;-78.5;3.38;180
133.75;-1.75;0.6875;0.03;0.08;0.36;-73.3;3.43;180
132.9375;-1.75;0.5;0.03;0.08;0.36;-68.6;3.48;180
132.0625;-1.625;0.25;-0.05;0.09;0.31;-63.6;3.52;180
131.25;-1.375;0.0625;-0.09;0.08;0.28;-58.7;3.57;180
130.6875;-1.1875;-0.0625;-0.1;0.07;0.26;-54.8;3.62;180
130;-0.8125;-0.1875;-0.11;0.05;0.23;-50.1;3.66;180
129.4375;-0.5;-0.3125;-0.12;0.02;0.2;-46;3.71;180
129;-0.25;-0.3125;-0.1;0;0.17;-42.2;3.76;180
128.5625;0;-0.25;-0.07;-0.03;0.15;-38.3;3.81;180
128.1875;0.1875;-0.1875;-0.05;-0.04;0.13;-34.7;3.86;180
127.8125;0.25;0;-0.01;-0.06;0.11;-30.9;3.91;180
127.5625;0.1875;0.125;0.03;-0.07;0.09;-27.6;3.95;180
127.375;0.125;0.25;0.07;-0.07;0.07;-24.5;4;180
127.25;-0.0625;0.4375;0.09;-0.06;0.04;-21.5;4.06;180
127.125;-0.3125;0.625;0.1;-0.04;0.04;-18.5;4.1;180
127.0625;-0.625;0.6875;0.11;-0.02;0.02;-15.7;4.14;180
127;-0.875;0.6875;0.11;-0.02;0.02;-12.9;4.2;180
127;-1.0625;0.6875;0.08;0.03;-0.01;-10.3;4.25;180
127.0625;-1.25;0.5625;0.05;0.05;-0.02;-7.9;4.29;180
127.125;-1.375;0.375;0.02;0.06;-0.03;-5.4;4.34;180
127.25;-1.3125;0.1875;-0.03;0.07;-0.05;-3.2;4.39;180
127.4375;-1.1875;0;-0.06;0.07;-0.07;-1.2;4.43;180
127.5625;-1.0625;-0.125;-0.09;0.07;-0.07;1.1;4.48;180
127.75;-0.75;-0.3125;-0.11;0.05;-0.06;3.1;4.53;180
127.875;-0.4375;-0.375;-0.12;0.03;-0.04;5.4;4.57;180
128;-0.125;-0.4375;-0.12;0.01;-0.05;7.6;4.62;180
128.125;0.0625;-0.375;-0.12;0.01;-0.05;9.9;4.67;180
128.3125;0.3125;-0.3125;-0.07;-0.04;-0.07;11.8;4.72;180
128.5;0.4375;-0.1875;-0.03;-0.05;-0.07;13.8;4.77;180
128.625;0.4375;-0.0625;0.01;-0.07;-0.05;16.1;4.81;180
128.8125;0.375;0.0625;0.06;-0.07;-0.05;18;4.86;180
128.9375;0.1875;0.25;0.08;-0.05;-0.07;20.3;4.92;180
129.1875;0;0.375;0.11;-0.04;-0.1;22;4.96;180
129.5;-0.3125;0.5;0.12;-0.01;-0.17;23.5;5.01;180
130.0625;-0.6875;0.5;0.11;0.01;-0.22;24.1;5.07;180
130.6875;-0.9375;0.375;0.11;0.01;-0.22;24.7;5.12;180
131.375;-1.1875;0.25;0.07;0.04;-0.24;25;5.16;180
132.0625;-1.3125;0.125;0.07;0.04;-0.24;25.3;5.22;180
132.5;-1.375;0;-0.02;0.06;-0.21;26.6;5.26;180
133.0625;-1.25;-0.125;-0.05;0.05;-0.19;27.2;5.31;180
133.625;-1.0625;-0.25;-0.05;0.05;-0.19;27.8;5.36;180
134.1875;-0.75;-0.3125;-0.12;0.02;-0.22;28.4;5.41;180
134.8125;-0.375;-0.375;-0.13;0;-0.22;28.7;5.45;180
135.4375;-0.0625;-0.3125;-0.12;-0.02;-0.21;29.1;5.5;180
136;0.1875;-0.25;-0.1;-0.04;-0.21;29.6;5.55;180
136.4375;0.4375;-0.125;-0.07;-0.05;-0.2;30.6;5.6;180
137;0.5625;0;-0.04;-0.05;-0.2;31;5.65;180
137.5625;0.625;0.0625;0.01;-0.05;-0.2;31.4;5.7;180
138.125;0.5;0.1875;0.05;-0.04;-0.21;31.8;5.74;180
138.75;0.3125;0.3125;0.05;-0.04;-0.21;32;5.8;180
139.1875;0.0625;0.3125;0.12;-0.01;-0.22;32.8;5.84;180
139.8125;-0.25;0.3125;0.12;0.01;-0.22;32.8;5.88;180
140.4375;-0.5625;0.25;0.12;0.03;-0.22;32.9;5.93;180
140.9375;-0.8125;0.1875;0.11;0.04;-0.23;33.5;5.98;180
141.625;-1.0625;0.0625;0.07;0.04;-0.23;33.2;6.02;180
142.25;-1.1875;0;0.03;0.04;-0.23;33.2;6.07;180
142.75;-1.1875;-0.125;-0.01;0.04;-0.23;33.7;6.12;180
143.4375;-1.125;-0.25;-0.06;0.02;-0.23;33.3;6.17;180
144.0625;-0.9375;-0.25;-0.09;0.01;-0.23;33.3;6.22;180
144.6875;-0.625;-0.25;-0.12;-0.01;-0.24;33.2;6.27;180
145.375;-0.25;-0.25;-0.12;-0.03;-0.24;32.8;6.32;180
146;0;-0.125;-0.12;-0.04;-0.23;32.7;6.37;180
146.6875;0.3125;0;-0.11;-0.05;-0.24;32.2;6.42;180
147.3125;0.5625;0.0625;-0.08;-0.05;-0.24;32;6.47;180
148;0.75;0.1875;-0.04;-0.04;-0.24;31.5;6.52;180
148.6875;0.75;0.3125;0.01;-0.03;-0.24;31;6.57;180
149.3125;0.625;0.375;0.01;-0.03;-0.24;30.7;6.61;180
149.875;0.5;0.375;0.08;0.01;-0.24;30.6;6.66;180
150.5625;0.1875;0.3125;0.11;0.03;-0.25;29.9;6.71;180
151.25;-0.0625;0.25;0.12;0.04;-0.25;29.3;6.76;180
151.9375;-0.375;0.125;0.12;0.05;-0.24;28.6;6.81;180
152.5625;-0.6875;0;0.1;0.05;-0.24;28.2;6.86;180
153.25;-0.9375;-0.0625;0.07;0.04;-0.24;27.4;6.91;180
153.875;-1.0625;-0.1875;0.03;0.03;-0.24;26.9;6.96;180
154.4375;-1.0625;-0.25;-0.01;0.01;-0.24;26.5;7;180
155.0625;-1;-0.25;-0.05;0;-0.24;25.8;7.06;180
155.75;-0.8125;-0.25;-0.05;0;-0.24;25;7.11;180
156.375;-0.5;-0.1875;-0.09;-0.03;-0.23;24.3;7.16;180
157;-0.1875;-0.0625;-0.12;-0.05;-0.23;23.6;7.2;180
157.625;0.0625;0;-0.12;-0.05;-0.22;22.8;7.25;180
158.125;0.3125;0.125;-0.1;-0.05;-0.22;22.5;7.29;180
158.75;0.5625;0.25;-0.08;-0.04;-0.23;21.6;7.35;180
159.375;0.75;0.375;-0.08;-0.04;-0.23;20.8;7.39;180
159.875;0.8125;0.4375;-0.01;-0.01;-0.22;20.4;7.43;180
160.5;0.75;0.4375;-0.01;-0.01;-0.22;19.4;7.48;180
161.0625;0.625;0.4375;0.06;0.02;-0.21;18.7;7.53;180
161.5625;0.4375;0.375;0.09;0.04;-0.21;18.1;7.58;180
162.125;0.125;0.25;0.11;0.05;-0.21;17.3;7.63;180
162.6875;-0.125;0.125;0.12;0.05;-0.2;16.5;7.68;180
163.3125;-0.4375;0;0.11;0.05;-0.21;15.4;7.73;180
163.875;-0.6875;-0.125;0.09;0.05;-0.21;14.6;7.78;180
164.4375;-0.875;-0.25;0.04;0.03;-0.22;13.6;7.82;180
165.0625;-0.9375;-0.25;0;0.01;-0.21;12.5;7.87;180
165.625;-0.875;-0.3125;-0.03;-0.01;-0.21;11.5;7.92;180
166.0625;-0.75;-0.25;-0.07;-0.04;-0.21;11;7.97;180
166.6875;-0.5625;-0.125;-0.09;-0.05;-0.21;9.7;8.02;180
167.25;-0.25;0;-0.11;-0.06;-0.21;8.7;8.07;180
167.8125;0;0.125;-0.11;-0.06;-0.21;7.6;8.12;180
168.4375;0.3125;0.25;-0.1;-0.05;-0.21;6.3;8.17;180
169;0.5;0.375;-0.07;-0.04;-0.21;5.2;8.22;180
169.5625;0.6875;0.5;-0.04;-0.02;-0.21;4;8.26;180
170.125;0.6875;0.5;0;0;-0.21;2.8;8.31;180
170.625;0.6875;0.5;0.03;0.02;-0.21;1.8;8.36;180
171.1875;0.5625;0.4375;0.05;0.04;-0.21;0.5;8.41;180
171.8125;0.375;0.3125;0.05;0.04;-0.21;-1;8.46;180
172.375;0.125;0.125;0.1;0.06;-0.21;-2.2;8.5;180
172.875;-0.0625;0;0.1;0.06;-0.21;-3.3;8.55;180
173.4375;-0.3125;-0.125;0.1;0.06;-0.21;-4.8;8.6;180
174.0625;-0.5;-0.25;0.07;0.03;-0.21;-6.4;8.64;180
174.5;-0.625;-0.3125;0.05;0.02;-0.21;-7.3;8.69;180
175.125;-0.75;-0.3125;0.02;0;-0.21;-9;8.74;180
175.6875;-0.75;-0.3125;-0.01;-0.03;-0.21;-10.5;8.78;180
176.1875;-0.6875;-0.25;-0.05;-0.05;-0.21;-11.7;8.83;180
176.75;-0.5;-0.0625;-0.08;-0.06;-0.21;-13.3;8.88;180
177.3125;-0.25;0.0625;-0.09;-0.07;-0.19;-14.9;8.93;180
177.75;0;0.25;-0.09;-0.07;-0.11;-16;8.98;180
177.9375;0.1875;0.375;-0.09;-0.06;-0.06;-16.3;9.03;180
178.0625;0.375;0.5625;-0.07;-0.04;-0.03;-16.5;9.08;180
178.1875;0.5625;0.625;-0.05;-0.02;-0.04;-16.8;9.13;180
178.3125;0.625;0.625;-0.03;0.01;-0.05;-17.1;9.18;180
178.4375;0.6875;0.625;0.01;0.03;-0.07;-17.4;9.23;180
178.625;0.5625;0.5;0.04;0.06;-0.09;-17.9;9.27;180
178.875;0.4375;0.3125;0.06;0.07;-0.08;-18.6;9.32;180
179.125;0.25;0.125;0.08;0.08;-0.06;-19.3;9.38;180
179.25;0;-0.0625;0.09;0.07;-0.06;-19.6;9.42;180
179.4375;-0.1875;-0.25;0.08;0.06;-0.07;-20.2;9.47;180
179.625;-0.375;-0.375;0.07;0.04;-0.08;-20.7;9.53;180
179.875;-0.5;-0.4375;0.04;0.02;-0.08;-21.5;9.57;180
180.125;-0.5625;-0.4375;0.01;-0.01;-0.08;-22.3;9.62;180
180.25;-0.5625;-0.375;-0.01;-0.03;-0.07;-22.6;9.67;180
180.4375;-0.5;-0.25;-0.04;-0.05;-0.06;-23.2;9.73;180
180.625;-0.3125;-0.0625;-0.07;-0.07;-0.07;-23.8;9.77;180
180.875;-0.125;0.0625;-0.08;-0.07;-0.08;-24.6;9.82;180
181.0625;0.0625;0.25;-0.08;-0.07;-0.07;-25.2;9.87;180
181.25;0.25;0.375;-0.08;-0.07;-0.07;-25.8;9.92;180
181.4375;0.4375;0.5;-0.06;-0.04;-0.08;-26.4;9.97;180
181.6875;0.5625;0.5625;-0.04;-0.01;-0.08;-27.3;10.02;180
181.875;0.625;0.5625;-0.01;0.02;-0.08;-27.9;10.07;180
182.125;0.5625;0.4375;0.02;0.04;-0.08;-28.8;10.11;180
182.3125;0.5;0.3125;0.05;0.06;-0.08;-29.5;10.16;180
182.5;0.375;0.1875;0.06;0.07;-0.08;-30.2;10.2;180
182.75;0.1875;0;0.07;0.07;-0.08;-31.1;10.25;180
182.9375;0;-0.125;0.08;0.07;-0.08;-31.8;10.3;180
183.125;-0.125;-0.25;0.07;0.05;-0.08;-32.5;10.35;180
183.375;-0.3125;-0.375;0.05;0.04;-0.07;-33.4;10.39;180
183.5625;-0.375;-0.4375;0.02;0.01;-0.08;-34.1;10.44;180
183.75;-0.375;-0.4375;0;-0.01;-0.06;-34.9;10.49;180
183.875;-0.375;-0.375;-0.02;-0.04;-0.06;-35.4;10.54;180
184.0625;-0.3125;-0.25;-0.04;-0.05;-0.06;-36.2;10.59;180
184.25;-0.125;-0.0625;-0.06;-0.06;-0.06;-37;10.63;180
184.375;0;0;-0.08;-0.07;-0.05;-37.5;10.68;180
184.5;0.125;0.1875;-0.07;-0.06;-0.05;-38.1;10.73;180
184.625;0.3125;0.3125;-0.07;-0.05;-0.05;-38.8;10.78;180
184.75;0.5;0.4375;-0.05;-0.03;-0.05;-39.4;10.83;180
184.875;0.625;0.4375;-0.03;0;-0.05;-40;10.88;180
185;0.625;0.4375;0;0.02;-0.04;-40.6;10.92;180
185.125;0.5625;0.375;0;0.02;-0.04;-41.2;10.97;180
185.1875;0.5;0.25;0.04;0.05;-0.03;-41.6;11.02;180
185.3125;0.3125;0.0625;0.06;0.06;-0.04;-42.3;11.07;180
185.4375;0.1875;0;0.07;0.06;-0.03;-43;11.12;180
185.5;0;-0.1875;0.06;0.06;-0.03;-43.4;11.17;180
185.5625;-0.0625;-0.3125;0.05;0.05;-0.03;-43.9;11.21;180
185.625;-0.1875;-0.4375;0.04;0.03;-0.03;-44.3;11.28;180
185.6875;-0.3125;-0.5;0.02;0.01;-0.02;-44.8;11.3;180
185.75;-0.3125;-0.5;0;-0.01;-0.02;-45.3;11.35;180
185.8125;-0.3125;-0.4375;-0.02;-0.03;-0.02;-45.8;11.4;180
185.875;-0.1875;-0.3125;-0.04;-0.04;-0.02;-46.2;11.45;180
185.9375;-0.0625;-0.1875;-0.06;-0.06;-0.01;-46.7;11.5;180
185.9375;0;-0.0625;-0.06;-0.06;-0.01;-47;11.55;180
185.9375;0.1875;0.0625;-0.06;-0.05;-0.01;-47.3;11.6;180
185.9375;0.375;0.1875;-0.06;-0.05;-0.01;-47.6;11.65;180
185.9375;0.5;0.3125;-0.05;-0.02;-0.01;-47.9;11.7;180
185.9375;0.625;0.3125;-0.02;0;-0.01;-48.2;11.75;180
186;0.6875;0.3125;0;0.02;-0.01;-48.7;11.8;180
186;0.625;0.25;0.02;0.04;-0.01;-48.9;11.85;180
186;0.5;0.0625;0.04;0.06;-0.01;-49.2;11.9;180
186;0.375;0;0.06;0.06;-0.01;-49.5;11.95;180
186;0.1875;-0.1875;0.07;0.06;0;-49.8;12;180
186;0;-0.375;0.07;0.06;0;-50.1;12.05;180
186;-0.125;-0.5;0.06;0.04;0.01;-50.4;12.1;180
186;-0.25;-0.5625;0.06;0.04;0.01;-50.7;12.15;180
186;-0.3125;-0.5625;0.01;0;0;-51;12.19;180
186;-0.3125;-0.5625;-0.01;-0.03;0.01;-51.3;12.24;180
186;-0.25;-0.4375;-0.04;-0.04;0.01;-51.6;12.29;180
186;-0.125;-0.3125;-0.06;-0.05;0.01;-51.9;12.34;180
186;0.0625;-0.1875;-0.08;-0.05;0.01;-52.2;12.39;180
185.9375;0.25;-0.0625;-0.07;-0.05;0.01;-52.3;12.43;180
185.9375;0.4375;0.0625;-0.06;-0.05;0.01;-52.7;12.48;180
185.875;0.5625;0.125;-0.05;-0.03;0.02;-52.7;12.53;180
185.875;0.6875;0.1875;-0.03;0;0.02;-53.1;12.59;180
185.8125;0.75;0.1875;-0.01;0.01;0.02;-53.1;12.63;180
185.75;0.75;0.125;0.01;0.03;0.02;-53.2;12.68;180
185.6875;0.625;0;0.04;0.04;0.01;-53.3;12.73;180
185.6875;0.5;-0.125;0.06;0.05;0.01;-53.6;12.77;180
185.625;0.375;-0.25;0.07;0.06;0.01;-53.7;12.82;180
185.625;0.125;-0.375;0.08;0.06;0.01;-54;12.87;180
185.5625;0;-0.5;0.07;0.04;0.02;-54.1;12.91;180
185.5625;-0.125;-0.625;0.06;0.03;0.02;-54.4;12.96;180
185.5;-0.25;-0.625;0.04;0.01;0.03;-54.4;13.01;180
185.4375;-0.3125;-0.625;0.01;-0.01;0.02;-54.5;13.05;180
185.375;-0.3125;-0.5625;0.01;-0.01;0.02;-54.6;13.1;180
185.3125;-0.25;-0.5;-0.04;-0.04;0.02;-54.7;13.15;180
185.25;-0.125;-0.375;-0.05;-0.04;0.02;-54.7;13.2;180
185.1875;0;-0.25;-0.07;-0.05;0.02;-54.8;13.25;180
185.125;0.25;-0.125;-0.08;-0.04;0.02;-54.9;13.3;180
185.0625;0.4375;0;-0.08;-0.03;0.03;-54.9;13.35;180
185;0.625;0;-0.06;-0.02;0.03;-55;13.39;180
184.9375;0.75;0;-0.03;0;0.03;-55.1;13.44;180
184.875;0.8125;0;-0.01;0.02;0.03;-55.1;13.49;180
184.8125;0.8125;-0.0625;0.02;0.04;0.02;-55.2;13.54;180
184.6875;0.75;-0.1875;0.03;0.04;0.03;-55;13.59;180
184.625;0.5625;-0.3125;0.06;0.05;0.03;-55.1;13.64;180
184.5625;0.375;-0.4375;0.06;0.05;0.03;-55.1;13.69;180
184.5;0.1875;-0.5625;0.08;0.04;0.02;-55.2;13.73;180
184.5;0;-0.6875;0.08;0.04;0.02;-55.4;13.79;180
184.4375;-0.125;-0.75;0.06;0.02;0.02;-55.4;13.83;180
184.375;-0.3125;-0.75;0.04;0;0.02;-55.5;13.88;180
184.3125;-0.375;-0.75;0.02;-0.01;0.03;-55.5;13.93;180
184.25;-0.375;-0.6875;-0.02;-0.03;0.03;-55.5;13.98;180
184.1875;-0.25;-0.5625;-0.05;-0.04;0.03;-55.5;14.03;180
184.0625;-0.125;-0.4375;-0.07;-0.05;0.02;-55.3;14.07;180
184;0;-0.3125;-0.08;-0.04;0.03;-55.4;14.12;180
183.9375;0.1875;-0.25;-0.08;-0.04;0.03;-55.4;14.17;180
183.875;0.4375;-0.1875;-0.08;-0.02;0.03;-55.4;14.21;180
183.8125;0.625;-0.125;-0.07;0;0.02;-55.4;14.26;180
183.6875;0.8125;-0.125;-0.07;0;0.02;-55.2;14.31;180
183.625;0.875;-0.1875;-0.01;0.03;0.03;-55.2;14.36;180
183.5625;0.875;-0.3125;0.02;0.04;0.03;-55.2;14.41;180
183.5;0.75;-0.4375;0.04;0.05;0.03;-55.2;14.46;180
183.4375;0.625;-0.5625;0.04;0.05;0.03;-55.2;14.51;180
183.375;0.375;-0.6875;0.06;0.05;0.03;-55.1;14.56;180
183.3125;0.1875;-0.8125;0.08;0.05;0.02;-55.1;14.6;180
183.25;0;-0.875;0.08;0.02;0.03;-55.1;14.65;180
183.1875;-0.1875;-0.9375;0.08;0.02;0.03;-55.1;14.7;180
183.125;-0.3125;-0.9375;0.04;-0.01;0.02;-55;14.75;180
183.0625;-0.375;-0.875;0.01;-0.03;0.03;-55;14.79;180
183;-0.375;-0.75;-0.01;-0.04;0.03;-55;14.84;180
182.9375;-0.3125;-0.6875;-0.04;-0.05;0.02;-54.9;14.89;180
182.875;-0.1875;-0.5625;-0.07;-0.05;0.02;-54.9;14.94;180
182.8125;0;-0.4375;-0.08;-0.04;0.02;-54.8;14.99;180
182.75;0.1875;-0.3125;-0.08;-0.04;0.02;-54.8;15.04;180
182.6875;0.4375;-0.3125;-0.08;-0.01;0.02;-54.7;15.08;180
182.625;0.625;-0.3125;-0.07;0.01;0.02;-54.7;15.13;180
182.5625;0.75;-0.3125;-0.05;0.02;0.02;-54.6;15.18;180
182.5;0.875;-0.4375;-0.02;0.04;0.02;-54.5;15.22;180
182.4375;0.875;-0.5;0;0.05;0.02;-54.5;15.27;180
182.4375;0.8125;-0.6875;0.03;0.05;0.02;-54.6;15.32;180
182.375;0.6875;-0.8125;0.06;0.05;0.01;-54.5;15.37;180
182.375;0.5;-0.9375;0.08;0.04;0.01;-54.7;15.41;180
182.375;0.3125;-1;0.09;0.03;0.01;-54.8;15.46;180
182.3125;0.0625;-1.0625;0.08;0.01;0.01;-54.7;15.51;180
182.3125;-0.0625;-1.125;0.07;0;0.01;-54.9;15.56;180
182.3125;-0.25;-1.0625;0.06;-0.02;0.02;-55;15.61;180
182.25;-0.375;-1;0.06;-0.02;0.02;-54.9;15.67;180
182.1875;-0.375;-0.875;0;-0.04;0.01;-54.8;15.71;180
182.125;-0.3125;-0.75;-0.04;-0.05;0.02;-54.7;15.76;180
182.125;-0.1875;-0.625;-0.06;-0.04;0.02;-54.8;15.8;180
182.0625;0;-0.5;-0.08;-0.04;0.01;-54.7;15.85;180
182;0.125;-0.4375;-0.08;-0.02;0.01;-54.6;15.9;180
182;0.375;-0.375;-0.08;-0.01;0.01;-54.8;15.95;180
181.9375;0.5625;-0.375;-0.08;0.01;0.01;-54.6;16;180
181.9375;0.75;-0.375;-0.05;0.03;0.01;-54.8;16.05;180
181.9375;0.8125;-0.5;-0.02;0.05;0.01;-54.9;16.1;180
181.875;0.875;-0.5625;0;0.06;0.01;-54.7;16.15;180
181.875;0.8125;-0.75;0.03;0.06;0.01;-54.9;16.2;180
181.875;0.6875;-0.875;0.05;0.05;0.01;-55;16.25;180
181.875;0.5;-1;0.07;0.04;0.01;-55.1;16.3;180
181.875;0.25;-1.0625;0.08;0.02;0.01;-55.2;16.34;180
181.875;0.0625;-1.0625;0.08;0;0.01;-55.2;16.39;180
181.8125;-0.0625;-1;0.07;-0.02;0.02;-55.1;16.44;180
181.75;-0.25;-0.9375;0.05;-0.04;0.02;-55;16.48;180
181.75;-0.3125;-0.75;0.02;-0.05;0.02;-55.1;16.53;180
181.6875;-0.375;-0.625;0;-0.06;0.01;-55;16.58;180
181.6875;-0.3125;-0.5;-0.03;-0.05;0.01;-55.1;16.62;180
181.6875;-0.1875;-0.3125;-0.05;-0.04;0.01;-55.2;16.67;180
181.6875;0;-0.1875;-0.07;-0.03;0.01;-55.3;16.72;180
181.625;0.0625;-0.125;-0.08;-0.02;0.01;-55.1;16.77;180
181.625;0.3125;-0.0625;-0.08;0;0.02;-55.3;16.82;180
181.5625;0.5;-0.125;-0.07;0.02;0.02;-55.1;16.87;180
181.5;0.625;-0.1875;-0.05;0.05;0.02;-55;16.92;180
181.4375;0.75;-0.3125;-0.03;0.06;0.02;-54.9;16.97;180
181.4375;0.75;-0.5;0;0.07;0.01;-55;17.01;180
181.4375;0.75;-0.625;0.03;0.06;0;-55.1;17.06;180
181.4375;0.625;-0.75;0.05;0.05;0.01;-55.1;17.11;180
181.4375;0.5;-0.875;0.07;0.04;0.01;-55.2;17.16;180
181.375;0.3125;-1;0.07;0.02;0.02;-55.1;17.21;180
181.375;0.0625;-1;0.07;0;0.02;-55.2;17.25;180
181.3125;-0.0625;-0.9375;0.07;-0.03;0.02;-55;17.3;180
181.25;-0.1875;-0.875;0.05;-0.04;0.01;-54.9;17.35;180
181.25;-0.25;-0.75;0.03;-0.05;0.01;-55;17.4;180
181.25;-0.3125;-0.5625;0.03;-0.05;0.01;-55;17.45;180
181.25;-0.25;-0.375;-0.02;-0.06;0.01;-55.1;17.51;180
181.25;-0.125;-0.25;-0.05;-0.05;0.01;-55.2;17.55;180
181.1875;0;-0.125;-0.06;-0.03;0.01;-55;17.59;180
181.1875;0.0625;-0.0625;-0.06;-0.01;0.01;-55.1;17.64;180
181.1875;0.25;-0.0625;-0.06;0.01;0.01;-55.2;17.69;180
181.1875;0.4375;-0.125;-0.06;0.03;0;-55.2;17.74;180
181.1875;0.5625;-0.25;-0.04;0.05;0;-55.3;17.78;180
181.1875;0.625;-0.375;-0.03;0.06;0;-55.3;17.83;180
181.1875;0.6875;-0.5625;-0.01;0.07;0;-55.4;17.88;180
181.1875;0.6875;-0.75;0.01;0.07;0;-55.5;17.92;180
181.1875;0.625;-0.875;0.03;0.06;0.01;-55.5;17.97;180
181.1875;0.5;-1.0625;0.05;0.04;0.01;-55.6;18.02;180
181.125;0.375;-1.125;0.06;0.02;0.01;-55.4;18.07;180
181.1875;0.1875;-1.125;0.06;0;0.01;-55.7;18.13;180
181.1875;0.0625;-1.125;0.05;-0.03;0.01;-55.7;18.17;180
181.1875;0;-1;0.03;-0.05;0.01;-55.8;18.22;180
181.1875;-0.0625;-0.875;0.02;-0.06;0.01;-55.9;18.28;180
181.125;-0.125;-0.6875;0.02;-0.06;0.01;-55.7;18.33;180
181.125;-0.125;-0.5;-0.01;-0.06;0.01;-55.8;18.38;180
181.125;0;-0.3125;-0.04;-0.04;0.01;-55.8;18.43;180
181.125;0;-0.25;-0.05;-0.02;0;-55.9;18.48;180
181.125;0.1875;-0.1875;-0.06;0;0;-56;18.53;180
181.125;0.3125;-0.25;-0.05;0.02;0;-56;18.58;180
181.125;0.4375;-0.3125;-0.04;0.05;0;-56.1;18.63;180
181.125;0.5625;-0.5;-0.03;0.07;0;-56.1;18.68;180
181.125;0.625;-0.6875;-0.01;0.07;0;-56.2;18.73;180
181.125;0.625;-0.875;0;0.07;0;-56.2;18.77;180
181.125;0.625;-1.0625;0.02;0.06;0;-56.3;18.82;180
181.125;0.5;-1.25;0.03;0.04;0;-56.4;18.87;180
181.125;0.4375;-1.3125;0.04;0.02;0;-56.4;18.92;180
181.125;0.3125;-1.3125;0.05;0;0;-56.5;18.97;180
181.125;0.1875;-1.3125;0.04;-0.02;0.01;-56.5;19.02;180
181.125;0.0625;-1.1875;0.04;-0.05;0.01;-56.6;19.07;180
181.125;0;-1.0625;0.03;-0.06;0.01;-56.6;19.11;180
181.0625;0;-0.875;0.01;-0.07;0.01;-56.5;19.16;180
181.0625;0;-0.6875;-0.01;-0.07;0.01;-56.6;19.21;180
181.0625;0;-0.5;-0.02;-0.05;0.01;-56.6;19.26;180
181.0625;0.0625;-0.3125;-0.02;-0.05;0.01;-56.7;19.31;180
181.0625;0.125;-0.1875;-0.04;-0.02;0.01;-56.7;19.35;180
181.0625;0.1875;-0.1875;-0.04;0;0.01;-56.8;19.4;180
181.0625;0.3125;-0.1875;-0.04;0.03;0.01;-56.8;19.45;180
181.0625;0.4375;-0.3125;-0.04;0.05;0;-56.9;19.49;180
181.0625;0.5;-0.375;-0.02;0.06;0;-56.9;19.54;180
181.0625;0.5;-0.5625;-0.01;0.08;0.01;-57;19.59;180
181.0625;0.5;-0.75;0;0.08;0.01;-57;19.63;180
181.0625;0.5;-0.9375;0.02;0.06;0;-57.1;19.68;180
181.0625;0.4375;-1.0625;0.03;0.05;0;-57.1;19.73;180
181.0625;0.3125;-1.125;0.03;0.03;0;-57.2;19.78;180
181.0625;0.25;-1.1875;0.03;0;0;-57.2;19.83;180
181.0625;0.125;-1.125;0.03;-0.02;0;-57.3;19.88;180
181.0625;0.0625;-1;0.03;-0.04;0;-57.4;19.93;180
181.0625;0;-0.875;0.01;-0.06;0.01;-57.4;19.97;180
181.0625;0;-0.6875;0.01;-0.08;0.01;-57.5;20.02;180
181.0625;0;-0.4375;0;-0.07;0.01;-57.5;20.07;180
181.0625;0;-0.25;-0.02;-0.06;0.01;-57.6;20.12;180
181.0625;0.0625;-0.125;-0.03;-0.04;0;-57.6;20.17;180
181.0625;0.125;0;-0.03;-0.04;0;-57.7;20.22;180
181.0625;0.1875;0;-0.03;0;0;-57.7;20.27;180
181.0625;0.25;0;-0.03;0.03;0.01;-57.8;20.32;180
181.0625;0.375;-0.125;-0.02;0.06;0.01;-57.8;20.37;180
181.0625;0.375;-0.3125;-0.01;0.07;0;-57.9;20.42;180
181.0625;0.375;-0.5625;0;0.08;0;-57.9;20.47;180
181.0625;0.375;-0.75;0.01;0.07;0;-58;20.51;180
181.0625;0.375;-0.9375;0.02;0.06;0;-58;20.56;180
181.0625;0.25;-1.125;0.03;0.04;0;-58.1;20.61;180
181.0625;0.1875;-1.1875;0.03;0.03;0.01;-58.2;20.65;180
181.0625;0.125;-1.1875;0.03;-0.01;0.01;-58.2;20.7;180
181.0625;0.0625;-1.125;0.02;-0.04;0.01;-58.3;20.75;180
181.0625;0.0625;-1.0625;0.02;-0.05;0.01;-58.3;20.8;180
181.0625;0;-0.875;0.01;-0.07;0.01;-58.4;20.84;180
181.0625;0;-0.6875;0;-0.08;0.01;-58.4;20.89;180
181.0625;0.0625;-0.5;-0.02;-0.07;0.01;-58.5;20.94;180
181.0625;0.125;-0.3125;-0.03;-0.06;0.01;-58.5;20.99;180
181.0625;0.1875;-0.1875;-0.03;-0.04;0.01;-58.6;21.04;180
181;0.25;-0.125;-0.02;-0.02;0.01;-58.4;21.09;180
181;0.3125;-0.0625;-0.03;0.01;0;-58.5;21.13;180
181;0.375;-0.125;-0.02;0.04;0;-58.5;21.19;180
181;0.375;-0.25;-0.02;0.04;0;-58.6;21.23;180
181.0625;0.375;-0.375;0;0.07;0;-58.9;21.28;180
181;0.375;-0.5625;0;0.07;0;-58.6;21.33;180
181;0.375;-0.75;0.02;0.08;0.01;-58.7;21.37;180
181;0.3125;-0.9375;0.02;0.06;0;-58.8;21.42;180
181;0.25;-1.0625;0.03;0.05;0;-58.8;21.47;180
181;0.1875;-1.125;0.02;0.03;0;-58.9;21.52;180
181;0.125;-1.1875;0.02;0;0.01;-58.9;21.57;180
181;0.0625;-1.125;0.02;-0.03;0.01;-59;21.61;180
181;0.0625;-1;0.01;-0.05;0.01;-59;21.66;180
181;0;-0.8125;-0.01;-0.07;0.01;-59.1;21.71;180
181;0.0625;-0.625;-0.01;-0.07;0.01;-59.1;21.75;180
181;0.0625;-0.4375;-0.02;-0.08;0.01;-59.2;21.8;180
181;0.125;-0.1875;-0.02;-0.06;0.01;-59.2;21.85;180
181;0.1875;0;-0.03;-0.05;0.01;-59.3;21.89;180
181;0.25;0;-0.03;-0.03;0.01;-59.3;21.94;180
181;0.3125;0.0625;-0.02;0.01;0.01;-59.4;21.99;180
181;0.3125;0.0625;-0.01;0.03;0.01;-59.4;22.05;180
181;0.3125;0;-0.01;0.06;0.01;-59.5;22.09;180
181;0.3125;-0.1875;0.01;0.07;0;-59.5;22.14;180
181;0.3125;-0.375;0.01;0.08;0.01;-59.6;22.19;180
181;0.3125;-0.625;0.02;0.09;0;-59.6;22.24;180
181;0.25;-0.8125;0.02;0.09;0;-59.7;22.29;180
181;0.1875;-1;0.02;0.05;0;-59.7;22.33;180
181;0.125;-1.0625;0.02;0.02;0;-59.8;22.38;180
181;0.0625;-1.125;0.02;0;0.01;-59.8;22.43;180
181;0.0625;-1;0.01;-0.03;0.01;-59.9;22.48;180
181;0.0625;-0.875;0;-0.05;0.01;-59.9;22.53;180
181;0.0625;-0.6875;-0.01;-0.07;0.01;-60;22.58;180
181;0.125;-0.5;-0.02;-0.07;0.01;-60;22.63;180
181;0.125;-0.3125;-0.02;-0.07;0.01;-60.1;22.68;180
180.9375;0.1875;-0.1875;-0.03;-0.06;0.01;-59.9;22.73;180
180.9375;0.3125;0;-0.03;-0.04;0;-60;22.78;180
180.9375;0.375;0;-0.02;-0.02;0;-60;22.83;180
180.9375;0.375;0;-0.02;0.02;0;-60.1;22.88;180
180.9375;0.4375;-0.0625;-0.01;0.04;0.01;-60.1;22.93;180
180.9375;0.4375;-0.1875;0;0.06;0.01;-60.2;22.98;180
180.9375;0.4375;-0.375;0.01;0.08;0.01;-60.2;23.03;180
180.9375;0.375;-0.625;0.02;0.09;0;-60.3;23.07;180
180.9375;0.3125;-0.8125;0.03;0.08;0;-60.3;23.12;180
180.9375;0.25;-1;0.03;0.06;0;-60.4;23.16;180
181;0.1875;-1.125;0.02;0.04;0.01;-60.7;23.21;180
181;0.125;-1.1875;0.02;0.02;0.01;-60.7;23.26;180
181;0.0625;-1.1875;0.02;0.02;0.01;-60.7;23.31;180
181;0.0625;-1.125;0;-0.03;0.01;-60.8;23.35;180
180.9375;0.0625;-1;-0.01;-0.06;0.01;-60.6;23.4;180
180.9375;0.0625;-0.875;-0.02;-0.07;0.01;-60.7;23.45;180
180.9375;0.125;-0.625;-0.02;-0.08;0.01;-60.7;23.5;180
180.9375;0.1875;-0.4375;-0.03;-0.07;0.01;-60.8;23.55;180
180.875;0.3125;-0.25;-0.03;-0.06;0.01;-60.6;23.6;180
180.875;0.375;-0.125;-0.02;-0.04;0.01;-60.7;23.65;180
180.875;0.4375;-0.0625;-0.02;-0.01;0;-60.7;23.69;180
180.875;0.4375;-0.0625;-0.01;0.02;0;-60.7;23.74;180
180.875;0.5;-0.125;-0.01;0.03;0;-60.8;23.79;180
180.875;0.5;-0.25;0.01;0.06;0;-60.8;23.84;180
180.875;0.4375;-0.5;0.01;0.08;0;-60.9;23.89;180
180.875;0.375;-0.6875;0.01;0.08;0.01;-60.9;23.93;180
180.875;0.375;-0.9375;0.02;0.08;0;-61;23.98;180
180.875;0.3125;-1.0625;0.03;0.06;0.01;-61;24.03;180
180.875;0.1875;-1.25;0.03;0.04;0;-61.1;24.08;180
180.875;0.125;-1.3125;0.03;0.04;0;-61.1;24.13;180
180.875;0.125;-1.3125;0.01;-0.01;0;-61.1;24.17;180
180.875;0.125;-1.25;0;-0.03;0.01;-61.2;24.22;180
180.875;0.125;-1.125;-0.01;-0.05;0.01;-61.2;24.27;180
180.875;0.125;-0.9375;-0.01;-0.05;0.01;-61.3;24.32;180
180.875;0.1875;-0.8125;-0.02;-0.08;0;-61.3;24.36;180
180.875;0.25;-0.5625;-0.02;-0.08;0;-61.4;24.41;180
180.875;0.3125;-0.375;-0.03;-0.06;0;-61.4;24.46;180
180.875;0.375;-0.25;-0.02;-0.03;0.01;-61.4;24.51;180
180.875;0.4375;-0.1875;-0.02;-0.01;0.01;-61.5;24.56;180
180.875;0.4375;-0.1875;-0.01;0.02;0.01;-61.5;24.61;180
180.875;0.4375;-0.25;0;0.05;0;-61.6;24.66;180
180.875;0.4375;-0.375;0.02;0.07;0;-61.6;24.71;180
180.875;0.375;-0.5625;0.02;0.08;0.01;-61.7;24.76;180
180.875;0.3125;-0.75;0.02;0.09;0;-61.7;24.81;180
180.875;0.25;-0.9375;0.02;0.07;0;-61.8;24.86;180
180.875;0.1875;-1.125;0.02;0.06;0;-61.8;24.91;180
180.875;0.125;-1.25;0.01;0.04;0;-61.8;24.96;180
180.875;0.0625;-1.25;0;0.01;0.01;-61.9;25;180
180.875;0.0625;-1.1875;-0.01;-0.02;0.01;-61.9;25.05;180
180.875;0.0625;-1.125;-0.01;-0.05;0.01;-62;25.1;180
180.875;0.0625;-0.9375;-0.01;-0.06;0.01;-62;25.15;180
180.875;0.0625;-0.75;0;-0.07;0.01;-62.1;25.2;180
180.875;0.0625;-0.5625;0;-0.07;0.01;-62.1;25.25;180
180.875;0.125;-0.3125;-0.02;-0.06;0.01;-62.1;25.3;180
180.875;0.1875;-0.125;-0.03;-0.05;0;-62.2;25.34;180
180.875;0.25;0;-0.03;-0.05;0;-62.2;25.39;180
180.875;0.25;0;-0.01;0;0.01;-62.3;25.44;180
180.875;0.25;0;0;0.02;0;-62.3;25.49;180
180.875;0.25;-0.0625;0.01;0.05;0.01;-62.4;25.54;180
180.875;0.1875;-0.1875;0.02;0.06;0;-62.4;25.59;180
180.875;0.125;-0.375;0.02;0.08;0.01;-62.5;25.63;180
180.875;0.0625;-0.5625;0.02;0.08;0.01;-62.5;25.68;180
180.875;0;-0.75;0.01;0.07;0;-62.5;25.72;180
180.875;0;-0.875;0.01;0.06;0.01;-62.6;25.77;180
180.875;0;-1;0;0.04;0.01;-62.6;25.82;180
180.8125;0;-1.0625;0;0.02;0.01;-62.4;25.86;180
180.8125;0;-1.0625;0;0.02;0.01;-62.5;25.91;180
180.8125;0.0625;-1;-0.02;-0.04;0;-62.6;25.97;180
180.8125;0.125;-0.875;-0.02;-0.05;0;-62.6;26.01;180
180.8125;0.125;-0.75;-0.02;-0.07;0.01;-62.6;26.06;180
180.8125;0.1875;-0.5;-0.02;-0.07;0.01;-62.7;26.11;180
180.8125;0.25;-0.3125;-0.02;-0.07;0.01;-62.7;26.15;180
180.75;0.3125;-0.1875;-0.01;-0.05;0.01;-62.5;26.2;180
180.75;0.3125;-0.0625;0;-0.03;0;-62.6;26.25;180
180.75;0.3125;0;0.01;-0.01;0;-62.7;26.31;180
180.75;0.25;-0.0625;0.01;0.02;0.01;-62.7;26.35;180
180.75;0.25;-0.125;0.02;0.04;0.01;-62.7;26.4;180
180.75;0.1875;-0.25;0.02;0.06;0;-62.8;26.44;180
180.75;0.125;-0.4375;0.02;0.07;0;-62.8;26.49;180
180.75;0.0625;-0.625;0.02;0.07;0;-62.8;26.54;180
180.75;0;-0.8125;0.01;0.07;0;-62.9;26.59;180
180.75;0;-1;0;0.05;0;-62.9;26.64;180
180.75;0;-1.125;-0.01;0.03;0.01;-63;26.69;180
180.75;0;-1.1875;-0.01;0.01;0;-63;26.74;180
180.75;0.0625;-1.1875;-0.01;0.01;0;-63;26.79;180
180.75;0.125;-1.0625;-0.02;-0.02;0.01;-63.1;26.84;180
180.75;0.1875;-0.9375;-0.03;-0.05;0.01;-63.1;26.88;180
180.75;0.25;-0.8125;-0.03;-0.06;0.01;-63.1;26.93;180
180.75;0.3125;-0.625;-0.02;-0.07;0.01;-63.2;26.98;180
180.75;0.375;-0.4375;-0.02;-0.06;0.01;-63.2;27.02;180
180.6875;0.375;-0.3125;-0.01;-0.05;0.01;-63;27.07;180
180.6875;0.375;-0.1875;0;-0.03;0;-63.1;27.12;180
180.6875;0.375;-0.1875;0.01;-0.01;0;-63.1;27.17;180
180.6875;0.3125;-0.1875;0.02;0.02;0;-63.2;27.22;180
180.6875;0.25;-0.25;0.02;0.02;0;-63.2;27.27;180
180.6875;0.1875;-0.4375;0.04;0.06;0.01;-63.2;27.31;180
180.6875;0.0625;-0.625;0.04;0.06;0.01;-63.3;27.37;180
180.6875;0;-0.8125;0.03;0.07;0.01;-63.3;27.41;180
180.6875;-0.0625;-0.9375;0.02;0.07;0;-63.3;27.46;180
180.6875;-0.0625;-1.125;0.02;0.07;0;-63.4;27.51;180
180.6875;-0.0625;-1.1875;0.01;0.04;0;-63.4;27.56;180
180.6875;0;-1.25;-0.02;0.01;0.01;-63.4;27.6;180
180.6875;0;-1.25;-0.03;-0.01;0.02;-63.5;27.65;180
180.625;0.0625;-1.1875;-0.04;-0.03;0.01;-63.3;27.7;180
180.625;0.1875;-1.0625;-0.05;-0.05;0.01;-63.3;27.75;180
180.625;0.3125;-0.9375;-0.04;-0.05;0.01;-63.4;27.8;180
180.625;0.4375;-0.75;-0.04;-0.06;0;-63.4;27.84;180
180.625;0.5;-0.5625;-0.03;-0.06;0.01;-63.4;27.89;180
180.625;0.5;-0.375;-0.01;-0.05;0.01;-63.5;27.94;180
180.625;0.5;-0.25;0;-0.03;0.01;-63.5;27.98;180
180.625;0.5;-0.25;0.02;-0.01;0;-63.5;28.03;180
180.625;0.4375;-0.1875;0.03;0.01;0;-63.6;28.08;180
180.625;0.3125;-0.25;0.04;0.03;0;-63.6;28.12;180
180.625;0.1875;-0.375;0.05;0.05;0.01;-63.6;28.17;180
180.625;0.0625;-0.4375;0.05;0.06;0.01;-63.7;28.22;180
180.625;0;-0.625;0.04;0.06;0;-63.7;28.27;180
180.625;-0.125;-0.75;0.03;0.06;0;-63.7;28.32;180
180.625;-0.1875;-0.875;0.02;0.05;0;-63.8;28.36;180
180.625;-0.1875;-1;0;0.03;0;-63.8;28.41;180
180.625;-0.1875;-1;-0.03;0.01;0.01;-63.8;28.46;180
180.625;-0.125;-1;-0.04;-0.01;0.01;-63.8;28.51;180
180.625;0;-0.9375;-0.05;-0.03;0.01;-63.9;28.56;180
180.625;0.125;-0.8125;-0.06;-0.05;0.01;-63.9;28.61;180
180.625;0.25;-0.625;-0.06;-0.05;0.01;-63.9;28.65;180
180.625;0.375;-0.5;-0.05;-0.05;0;-64;28.7;180
180.625;0.5;-0.375;-0.03;-0.04;0;-64;28.75;180
180.625;0.5625;-0.25;-0.02;-0.03;0.01;-64;28.8;180
180.625;0.5625;-0.1875;0.01;-0.02;0.01;-64.1;28.85;180
180.625;0.5625;-0.1875;0.03;0.01;0;-64.1;28.9;180
180.625;0.4375;-0.1875;0.04;0.02;0;-64.1;28.95;180
180.625;0.3125;-0.25;0.05;0.04;0;-64.2;29;180
180.625;0.125;-0.375;0.06;0.05;0;-64.2;29.05;180
180.625;0;-0.5;0.06;0.05;0;-64.2;29.11;180
180.625;-0.125;-0.6875;0.06;0.05;0;-64.3;29.15;180
180.625;-0.25;-0.8125;0.03;0.04;0;-64.3;29.2;180
180.625;-0.3125;-0.875;0.02;0.03;0;-64.3;29.25;180
180.625;-0.3125;-0.9375;0.02;0.03;0;-64.3;29.3;180
180.625;-0.25;-1;-0.02;0.01;0;-64.4;29.34;180
180.625;-0.125;-1;-0.05;-0.01;0.01;-64.4;29.39;180
180.625;-0.0625;-0.9375;-0.06;-0.03;0.01;-64.4;29.44;180
180.5625;0.0625;-0.8125;-0.06;-0.04;0.01;-64.2;29.48;180
180.5625;0.25;-0.6875;-0.07;-0.05;0.01;-64.3;29.53;180
180.5625;0.4375;-0.625;-0.06;-0.04;0.01;-64.3;29.58;180
180.5625;0.5625;-0.5;-0.04;-0.04;0.01;-64.4;29.63;180
180.5625;0.6875;-0.4375;-0.03;-0.03;0.01;-64.4;29.68;180
180.5625;0.6875;-0.375;0;-0.01;0;-64.4;29.73;180
180.5625;0.6875;-0.375;0;-0.01;0;-64.5;29.78;180
180.5625;0.5625;-0.375;0.04;0.02;0;-64.5;29.82;180
180.5625;0.4375;-0.5;0.06;0.04;0;-64.5;29.87;180
180.5625;0.25;-0.5625;0.07;0.04;0;-64.5;29.92;180
180.5625;0.0625;-0.6875;0.07;0.04;0;-64.6;29.97;180
180.5625;-0.0625;-0.8125;0.06;0.05;0.01;-64.6;30.02;180
180.5625;-0.1875;-0.9375;0.05;0.04;0.01;-64.6;30.07;180
180.5625;-0.3125;-1;0.03;0.02;0;-64.6;30.11;180
180.5625;-0.3125;-1.0625;0;0.01;0;-64.7;30.16;180
180.5625;-0.3125;-1.0625;-0.03;0;0;-64.7;30.21;180
180.5625;-0.25;-1;-0.05;-0.02;0;-64.7;30.26;180
180.5625;-0.0625;-0.9375;-0.06;-0.03;0.01;-64.8;30.31;180
180.5625;0.0625;-0.875;-0.07;-0.03;0.01;-64.8;30.36;180
180.5625;0.25;-0.8125;-0.08;-0.03;0.01;-64.8;30.41;180
180.5;0.4375;-0.6875;-0.07;-0.03;0;-64.6;30.45;180
180.5;0.625;-0.625;-0.05;-0.03;0.01;-64.7;30.51;180
180.5;0.6875;-0.5625;-0.03;-0.01;0;-64.7;30.55;180
180.5;0.75;-0.5625;0;0;0;-64.7;30.59;180
180.5;0.75;-0.5625;0.02;0.01;0.01;-64.8;30.64;180
180.5;0.625;-0.5625;0.04;0.03;0.01;-64.8;30.69;180
180.5;0.5;-0.625;0.06;0.04;0;-64.8;30.74;180
180.5625;0.3125;-0.6875;0.06;0.04;0;-65.1;30.79;180
180.5625;0.125;-0.75;0.07;0.04;0;-65;30.83;180
180.5625;0;-0.875;0.07;0.04;0;-65.1;30.88;180
180.5625;-0.1875;-0.9375;0.06;0.03;0;-65.1;30.93;180
180.5625;-0.3125;-0.9375;0.03;0.02;0;-65.1;30.98;180
180.5625;-0.375;-0.9375;0.01;0;0;-65.2;31.03;180
180.5625;-0.375;-0.9375;-0.02;-0.01;0;-65.2;31.08;180
180.5625;-0.3125;-0.875;-0.02;-0.01;0;-65.2;31.13;180
180.5625;-0.1875;-0.75;-0.06;-0.03;0;-65.2;31.17;180
180.5625;0;-0.6875;-0.07;-0.03;0;-65.3;31.22;180
180.5625;0.1875;-0.5625;-0.08;-0.03;0.01;-65.3;31.27;180
180.5625;0.375;-0.5;-0.07;-0.02;0.01;-65.3;31.32;180
180.5;0.5625;-0.4375;-0.06;-0.02;0.01;-65.1;31.37;180
180.5;0.6875;-0.375;-0.03;0;0.01;-65.2;31.42;180
180.5;0.75;-0.375;-0.01;0.01;0;-65.2;31.47;180
180.5;0.6875;-0.375;0.01;0.02;0;-65.2;31.52;180
180.5625;0.625;-0.4375;0.04;0.03;0;-65.5;31.57;180
180.5625;0.5;-0.5;0.06;0.03;0;-65.5;31.62;180
180.5625;0.3125;-0.5625;0.08;0.03;0;-65.5;31.67;180
180.5625;0.125;-0.6875;0.08;0.03;0;-65.5;31.71;180
180.5625;0;-0.75;0.08;0.02;0;-65.6;31.76;180
180.5625;-0.1875;-0.75;0.08;0.02;0;-65.6;31.81;180
180.5625;-0.3125;-0.75;0.06;0.01;0.01;-65.6;31.85;180
180.5625;-0.375;-0.75;0.02;0;0.01;-65.7;31.9;180
180.5625;-0.375;-0.75;-0.01;-0.01;0.01;-65.7;31.95;180
180.5625;-0.3125;-0.6875;-0.04;-0.02;0;-65.7;31.99;180
180.5625;-0.1875;-0.625;-0.06;-0.03;0;-65.7;32.04;180
180.5625;-0.0625;-0.5625;-0.07;-0.03;0;-65.8;32.09;180
180.5625;0.0625;-0.5;-0.08;-0.02;0;-65.8;32.14;180
180.5625;0.3125;-0.4375;-0.07;-0.01;0;-65.8;32.19;180
180.5625;0.5;-0.4375;-0.07;0;0.01;-65.9;32.23;180
180.5625;0.6875;-0.4375;-0.05;0.01;0;-65.9;32.28;180
180.5625;0.75;-0.4375;-0.02;0.02;0.01;-65.9;32.33;180
180.5625;0.75;-0.5;0;0.03;0;-65.9;32.38;180
180.5625;0.75;-0.5625;0;0.03;0;-66;32.43;180
180.5625;0.625;-0.6875;0.05;0.03;0;-66;32.48;180
180.5625;0.4375;-0.75;0.05;0.03;0;-66;32.53;180
180.5625;0.25;-0.8125;0.07;0.02;0;-66;32.57;180
180.5625;0.0625;-0.875;0.07;0.01;0;-66.1;32.62;180
180.5625;-0.0625;-0.875;0.06;0;0;-66.1;32.67;180
180.5625;-0.1875;-0.875;0.06;0;0;-66.1;32.73;180
180.5625;-0.3125;-0.8125;0.02;-0.01;0;-66.2;32.77;180
180.5625;-0.3125;-0.75;-0.01;-0.03;0;-66.2;32.82;180
180.5625;-0.25;-0.6875;-0.03;-0.03;0;-66.2;32.87;180
180.5625;-0.125;-0.625;-0.05;-0.03;0;-66.2;32.91;180
180.5625;0;-0.5625;-0.07;-0.03;0.01;-66.3;32.96;180
180.5625;0.125;-0.5625;-0.07;-0.02;0.01;-66.3;33;180
180.5625;0.3125;-0.5;-0.08;-0.01;0.01;-66.3;33.05;180
180.5;0.5;-0.5;-0.06;0.01;0.01;-66.1;33.1;180
180.5;0.6875;-0.5625;-0.05;0.01;0.01;-66.2;33.14;180
180.5;0.75;-0.5625;-0.03;0.02;0.01;-66.2;33.19;180
180.5;0.8125;-0.6875;-0.03;0.02;0.01;-66.2;33.25;180
180.5;0.75;-0.75;0.02;0.03;0.01;-66.3;33.29;180
180.5;0.6875;-0.8125;0.04;0.03;0;-66.3;33.35;180
180.5;0.5;-0.875;0.06;0.02;0;-66.3;33.39;180
180.5;0.375;-0.9375;0.07;0.02;0;-66.3;33.44;180
180.5;0.1875;-0.9375;0.07;0.01;0;-66.4;33.49;180
180.5;0;-1;0.07;0.01;0;-66.4;33.54;180
180.5;-0.0625;-0.9375;0.05;-0.01;0;-66.4;33.59;180
180.5;-0.1875;-0.9375;0.03;-0.02;0;-66.4;33.64;180
180.5;-0.25;-0.875;0.03;-0.02;0;-66.5;33.69;180
180.5;-0.1875;-0.75;-0.03;-0.03;0;-66.5;33.74;180
180.5;-0.0625;-0.6875;-0.05;-0.03;0;-66.5;33.78;180
180.5;0;-0.625;-0.06;-0.02;0;-66.5;33.83;180
180.5;0.1875;-0.625;-0.07;-0.01;0;-66.6;33.88;180
180.5;0.375;-0.625;-0.07;0;0;-66.6;33.93;180
180.5;0.5625;-0.625;-0.07;0;0;-66.6;33.98;180
180.5;0.6875;-0.625;-0.05;0.02;0;-66.6;34.03;180
180.5;0.75;-0.6875;-0.02;0.03;0;-66.7;34.08;180
180.5;0.8125;-0.75;0;0.03;0;-66.7;34.12;180
180.5;0.75;-0.8125;0.02;0.03;0;-66.7;34.17;180
180.5;0.625;-0.875;0.04;0.03;0;-66.7;34.21;180
180.5;0.5;-0.9375;0.05;0.02;0;-66.8;34.27;180
180.5;0.375;-0.9375;0.06;0.01;0;-66.8;34.31;180
180.5;0.1875;-0.9375;0.07;0;0;-66.8;34.35;180
180.5;0;-0.875;0.07;0;0;-66.8;34.41;180
180.5;-0.0625;-0.8125;0.04;-0.02;0;-66.9;34.45;180
180.5;-0.1875;-0.75;0.03;-0.02;0;-66.9;34.52;180
180.5;-0.1875;-0.6875;0.01;-0.03;0;-66.9;34.55;180
180.5;-0.1875;-0.5625;-0.02;-0.03;0;-66.9;34.6;180
180.5;-0.125;-0.4375;-0.04;-0.02;0;-67;34.64;180
180.5;0;-0.375;-0.05;-0.01;0;-67;34.69;180
180.5;0.0625;-0.375;-0.06;0;0;-67;34.74;180
180.5;0.25;-0.375;-0.06;0.01;0;-67;34.79;180
180.5;0.4375;-0.375;-0.06;0.01;0;-67.1;34.84;180
180.5;0.5625;-0.4375;-0.05;0.03;-0.01;-67.1;34.88;180
180.5;0.625;-0.4375;-0.02;0.03;0;-67.1;34.93;180
180.5;0.625;-0.5625;-0.02;0.03;0;-67.1;34.99;180
180.5;0.625;-0.625;0.02;0.03;0;-67.2;35.03;180
180.5;0.5625;-0.6875;0.02;0.03;0;-67.2;35.08;180
180.5;0.375;-0.75;0.05;0.02;0;-67.2;35.13;180
180.5;0.25;-0.8125;0.06;0;0;-67.2;35.17;180
180.5;0.125;-0.8125;0.05;-0.01;0;-67.3;35.22;180
180.5;0;-0.75;0.05;-0.01;0;-67.3;35.27;180
180.5;-0.0625;-0.6875;0.05;-0.03;0;-67.3;35.31;180
180.5;-0.1875;-0.625;0.03;-0.03;0;-67.3;35.36;180
180.5;-0.1875;-0.5625;0;-0.03;0;-67.4;35.41;180
180.5;-0.1875;-0.4375;-0.02;-0.03;0;-67.4;35.46;180
180.5;-0.125;-0.375;-0.03;-0.02;0;-67.4;35.51;180
180.5;0;-0.375;-0.05;-0.01;0;-67.4;35.56;180
180.5;0.125;-0.375;-0.06;0;0;-67.5;35.61;180
180.5;0.25;-0.375;-0.06;0.02;0;-67.5;35.66;180
180.5;0.4375;-0.4375;-0.05;0.03;0;-67.5;35.71;180
180.5;0.5625;-0.5;-0.04;0.03;0;-67.5;35.76;180
180.5;0.625;-0.625;-0.02;0.04;0;-67.6;35.81;180
180.5;0.625;-0.75;0;0.04;0;-67.6;35.86;180
180.5;0.625;-0.8125;0.02;0.04;0;-67.6;35.91;180
180.5;0.5625;-0.9375;0.04;0.02;0;-67.6;35.96;180
180.5;0.4375;-0.9375;0.05;0.02;-0.01;-67.7;36.01;180
180.5;0.25;-0.9375;0.06;0;0;-67.7;36.06;180
180.5;0.125;-0.9375;0.05;-0.01;0;-67.7;36.11;180
180.5;0;-0.875;0.04;-0.03;0;-67.7;36.15;180
180.5;-0.0625;-0.75;0.03;-0.04;0;-67.8;36.21;180
180.5;-0.125;-0.6875;0.01;-0.04;0;-67.8;36.25;180
180.5;-0.125;-0.5625;-0.01;-0.03;-0.01;-67.8;36.3;180
180.5;-0.0625;-0.5;-0.02;-0.03;0;-67.8;36.35;180
180.5;0;-0.4375;-0.04;-0.01;0;-67.9;36.4;180
180.5;0.0625;-0.4375;-0.05;0;0;-67.9;36.45;180
180.5;0.25;-0.4375;-0.06;0.02;0;-67.9;36.5;180
180.5;0.375;-0.5;-0.06;0.02;0;-67.9;36.55;180
180.5;0.5;-0.625;-0.04;0.03;-0.01;-68;36.59;180
180.5;0.625;-0.6875;-0.03;0.05;0;-68;36.64;180
180.5;0.6875;-0.8125;-0.02;0.04;0;-68;36.69;180
180.5;0.625;-0.875;0.01;0.03;0;-68;36.74;180
180.5;0.5625;-0.9375;0.03;0.03;-0.01;-68.1;36.78;180
180.5625;0.5;-1;0.04;0.02;0;-68.3;36.83;180
180.5625;0.375;-1;0.05;0;-0.01;-68.3;36.88;180
180.5625;0.1875;-0.9375;0.06;-0.01;0;-68.3;36.93;180
180.5625;0.0625;-0.875;0.05;-0.02;0;-68.4;36.97;180
180.5625;0;-0.8125;0.05;-0.02;0;-68.4;37.02;180
180.5625;-0.125;-0.6875;0.05;-0.03;0;-68.4;37.07;180
180.5625;-0.125;-0.5625;0;-0.04;0;-68.5;37.11;180
180.5625;-0.1875;-0.4375;-0.01;-0.04;0;-68.5;37.16;180
180.5625;-0.125;-0.3125;-0.02;-0.03;0;-68.5;37.21;180
180.5625;-0.0625;-0.1875;-0.04;-0.02;0.01;-68.5;37.26;180
180.5625;0.0625;-0.1875;-0.06;0;0;-68.6;37.31;180
180.5625;0.1875;-0.1875;-0.06;0;0;-68.6;37.37;180
180.5625;0.3125;-0.25;-0.05;0.03;-0.01;-68.6;37.41;180
180.5625;0.4375;-0.375;-0.05;0.05;-0.01;-68.6;37.46;180
180.5625;0.5625;-0.4375;-0.03;0.06;0;-68.7;37.5;180
180.5625;0.625;-0.625;-0.01;0.05;0;-68.7;37.55;180
180.5625;0.5625;-0.75;0.01;0.05;0;-68.7;37.6;180
180.5625;0.5625;-0.8125;0.03;0.03;-0.01;-68.8;37.65;180
180.5625;0.4375;-0.875;0.04;0.02;-0.01;-68.8;37.7;180
180.5625;0.3125;-0.875;0.05;0;-0.01;-68.8;37.75;180
180.5625;0.1875;-0.875;0.05;-0.02;0;-68.8;37.8;180
180.5625;0;-0.8125;0.05;-0.03;-0.01;-68.9;37.85;180
180.5625;-0.0625;-0.6875;0.04;-0.05;-0.01;-68.9;37.9;180
180.5625;-0.125;-0.5625;0.02;-0.06;-0.01;-68.9;37.96;180
180.5625;-0.125;-0.375;0.01;-0.05;0;-69;38;180
180.5625;-0.125;-0.3125;-0.01;-0.04;0;-69;38.05;180
180.5625;-0.125;-0.1875;-0.03;-0.02;0;-69;38.1;180
180.5625;0;-0.1875;-0.04;-0.01;-0.01;-69;38.15;180
180.5625;0.0625;-0.1875;-0.06;0.01;-0.01;-69.1;38.2;180
180.5625;0.25;-0.1875;-0.05;0.03;-0.01;-69.1;38.25;180
180.5625;0.375;-0.3125;-0.05;0.04;0;-69.1;38.3;180
180.5625;0.5;-0.4375;-0.05;0.06;0;-69.2;38.34;180
180.5625;0.625;-0.625;-0.03;0.06;-0.01;-69.2;38.39;180
180.5625;0.625;-0.75;-0.03;0.06;-0.01;-69.2;38.44;180
180.5625;0.625;-0.875;0.01;0.05;-0.01;-69.2;38.48;180
180.5625;0.625;-1;0.03;0.04;-0.01;-69.3;38.53;180
180.5625;0.5;-1.0625;0.04;0.02;-0.01;-69.3;38.58;180
180.5625;0.375;-1.0625;0.04;0.02;-0.01;-69.3;38.63;180
180.5625;0.25;-1.0625;0.05;-0.03;0;-69.4;38.67;180
180.5625;0.125;-1;0.05;-0.03;0;-69.4;38.72;180
180.5625;0;-0.8125;0.04;-0.06;0;-69.4;38.77;180
180.5625;-0.0625;-0.6875;0.03;-0.06;0;-69.4;38.82;180
180.5625;-0.0625;-0.5;0.01;-0.05;0;-69.5;38.87;180
180.5625;-0.0625;-0.375;-0.01;-0.04;0;-69.5;38.91;180
180.5625;0;-0.3125;-0.03;-0.03;0;-69.5;38.96;180
180.5625;0;-0.25;-0.04;-0.01;0;-69.5;39.01;180
180.5625;0.125;-0.25;-0.05;0.02;0;-69.6;39.06;180
180.5625;0.25;-0.3125;-0.05;0.03;0;-69.6;39.11;180
180.5625;0.4375;-0.4375;-0.05;0.05;-0.01;-69.6;39.16;180
180.5625;0.5625;-0.5625;-0.04;0.07;-0.01;-69.7;39.21;180
180.5625;0.625;-0.6875;-0.02;0.07;0;-69.7;39.25;180
180.5625;0.625;-0.875;-0.01;0.07;-0.01;-69.7;39.3;180
180.5625;0.625;-1;0.01;0.05;0;-69.7;39.35;180
180.5625;0.625;-1.125;0.02;0.03;0;-69.8;39.4;180
180.5625;0.5625;-1.125;0.04;0.02;0;-69.8;39.44;180
180.625;0.4375;-1.125;0.04;0;0;-70.1;39.49;180
180.625;0.3125;-1.0625;0.04;-0.03;0;-70.1;39.54;180
180.625;0.1875;-1;0.04;-0.05;-0.01;-70.1;39.58;180
180.625;0.0625;-0.8125;0.04;-0.06;0;-70.1;39.63;180
180.625;0;-0.625;0.03;-0.07;-0.01;-70.1;39.68;180
180.625;-0.0625;-0.4375;0.02;-0.06;0;-70.2;39.73;180
180.625;-0.0625;-0.25;0;-0.05;0;-70.2;39.77;180
180.625;-0.0625;-0.125;-0.01;-0.04;-0.01;-70.2;39.82;180
180.625;0;0;-0.03;-0.01;-0.01;-70.3;39.87;180
180.625;0;0;-0.04;0.01;-0.01;-70.3;39.92;180
180.625;0.125;-0.0625;-0.04;0.04;-0.01;-70.3;39.98;180
180.625;0.25;-0.125;-0.05;0.05;0;-70.4;40.03;180
180.625;0.375;-0.3125;-0.04;0.07;0;-70.4;40.08;180
180.625;0.4375;-0.5;-0.04;0.07;0;-70.4;40.13;180
180.625;0.5;-0.6875;-0.02;0.07;-0.01;-70.5;40.17;180
180.625;0.5625;-0.8125;-0.01;0.06;0;-70.5;40.22;180
180.625;0.5625;-1;0.01;0.04;0;-70.5;40.27;180
