__time,/imu/angular_velocity/x,/imu/angular_velocity/y,/imu/angular_velocity/z,/imu/angular_velocity_covariance[0;0],/imu/angular_velocity_covariance[0;1],/imu/angular_velocity_covariance[0;2],/imu/angular_velocity_covariance[1;1],/imu/angular_velocity_covariance[1;2],/imu/angular_velocity_covariance[2;2],/imu/header/stamp,/imu/linear_acceleration/x,/imu/linear_acceleration/y,/imu/linear_acceleration/z,/imu/linear_acceleration_covariance[0;0],/imu/linear_acceleration_covariance[0;1],/imu/linear_acceleration_covariance[0;2],/imu/linear_acceleration_covariance[1;1],/imu/linear_acceleration_covariance[1;2],/imu/linear_acceleration_covariance[2;2],/imu/orientation/pitch_deg,/imu/orientation/roll_deg,/imu/orientation/w,/imu/orientation/x,/imu/orientation/y,/imu/orientation/yaw_deg,/imu/orientation/z,/imu/orientation_covariance[0;0],/imu/orientation_covariance[0;1],/imu/orientation_covariance[0;2],/imu/orientation_covariance[1;1],/imu/orientation_covariance[1;2],/imu/orientation_covariance[2;2]
1720619266.220038,-0.014180800,-0.004363323,0.019634955,0.000000000,0.000000000,0.000000000,0.000000000,0.000000000,0.000000000,0.000000000,0.000000000,0.000000000,0.000000000,0.000000000,0.000000000,0.000000000,0.000000000,0.000000000,0.000000000,2.399908677,2.238042166,0.161499023,-0.017517090,0.022644043,161.451227750,0.986450195,0.000000000,0.000000000,0.000000000,0.000000000,0.000000000,0.000000000
1720619266.265357,-0.017453292,-0.006544985,0.011999139,0.000000000,0.000000000,0.000000000,0.000000000,0.000000000,0.000000000,0.000000000,0.000000000,0.000000000,0.000000000,0.000000000,0.000000000,0.000000000,0.000000000,0.000000000,0.000000000,2.393467729,2.204396398,0.161132813,-0.017517090,0.022338867,161.492959823,0.986511230,0.000000000,0.000000000,0.000000000,0.000000000,0.000000000,0.000000000
1720619266.314233,-0.015271631,-0.009817477,0.000000000,0.000000000,0.000000000,0.000000000,0.000000000,0.000000000,0.000000000,0.000000000,0.000000000,0.000000000,0.000000000,0.000000000,0.000000000,0.000000000,0.000000000,0.000000000,0.000000000,2.386252971,2.163343240,0.160949707,-0.017517090,0.021972656,161.513809426,0.986572266,0.000000000,0.000000000,0.000000000,0.000000000,0.000000000,0.000000000
1720619266.366273,-0.014180800,-0.010908308,0.002181662,0.000000000,0.000000000,0.000000000,0.000000000,0.000000000,0.000000000,0.000000000,0.000000000,0.000000000,0.000000000,0.000000000,0.000000000,0.000000000,0.000000000,0.000000000,0.000000000,2.365728944,2.124144170,0.160949707,-0.017395020,0.021606445,161.512612088,0.986572266,0.000000000,0.000000000,0.000000000,0.000000000,0.000000000,0.000000000
1720619266.413364,-0.007635816,-0.007635816,-0.001090831,0.000000000,0.000000000,0.000000000,0.000000000,0.000000000,0.000000000,0.000000000,0.000000000,0.000000000,0.000000000,0.000000000,0.000000000,0.000000000,0.000000000,0.000000000,0.000000000,2.369268690,2.102301838,0.160949707,-0.017456055,0.021423340,161.512225914,0.986572266,0.000000000,0.000000000,0.000000000,0.000000000,0.000000000,0.000000000
1720619266.462470,-0.004363323,-0.003272492,0.001090831,0.000000000,0.000000000,0.000000000,0.000000000,0.000000000,0.000000000,0.000000000,0.000000000,0.000000000,0.000000000,0.000000000,0.000000000,0.000000000,0.000000000,0.000000000,0.000000000,2.369268690,2.102301838,0.160949707,-0.017456055,0.021423340,161.512225914,0.986572266,0.000000000,0.000000000,0.000000000,0.000000000,0.000000000,0.000000000
1720619266.510274,0.002181662,0.002181662,0.020725785,0.000000000,0.000000000,0.000000000,0.000000000,0.000000000,0.000000000,0.000000000,0.000000000,0.000000000,0.000000000,0.000000000,0.000000000,0.000000000,0.000000000,0.000000000,0.000000000,2.368958422,2.102792126,0.160766602,-0.017456055,0.021423340,161.532947525,0.986572266,0.000000000,0.000000000,0.000000000,0.000000000,0.000000000,0.000000000
1720619266.557872,0.008726646,0.010908308,0.021816615,0.000000000,0.000000000,0.000000000,0.000000000,0.000000000,0.000000000,0.000000000,0.000000000,0.000000000,0.000000000,0.000000000,0.000000000,0.000000000,0.000000000,0.000000000,0.000000000,2.361005679,2.104845543,0.160339355,-0.017395020,0.021423340,161.583433400,0.986694336,0.000000000,0.000000000,0.000000000,0.000000000,0.000000000,0.000000000
1720619266.606409,0.009817477,0.014180800,0.015271631,0.000000000,0.000000000,0.000000000,0.000000000,0.000000000,0.000000000,0.000000000,0.000000000,0.000000000,0.000000000,0.000000000,0.000000000,0.000000000,0.000000000,0.000000000,0.000000000,2.381832169,2.109611555,0.159851074,-0.017578125,0.021484375,161.640287031,0.986755371,0.000000000,0.000000000,0.000000000,0.000000000,0.000000000,0.000000000
1720619266.656425,0.014180800,0.016362462,0.009817477,0.000000000,0.000000000,0.000000000,0.000000000,0.000000000,0.000000000,0.000000000,0.000000000,0.000000000,0.000000000,0.000000000,0.000000000,0.000000000,0.000000000,0.000000000,0.000000000,2.413366474,2.133621577,0.159545898,-0.017822266,0.021728516,161.675909183,0.986755371,0.000000000,0.000000000,0.000000000,0.000000000,0.000000000,0.000000000
1720619266.706367,0.011999139,0.020725785,-0.001090831,0.000000000,0.000000000,0.000000000,0.000000000,0.000000000,0.000000000,0.000000000,0.000000000,0.000000000,0.000000000,0.000000000,0.000000000,0.000000000,0.000000000,0.000000000,0.000000000,2.461445525,2.168406943,0.159545898,-0.018188477,0.022094727,161.677552467,0.986755371,0.000000000,0.000000000,0.000000000,0.000000000,0.000000000,0.000000000
1720619266.755663,0.011999139,0.020725785,0.002181662,0.000000000,0.000000000,0.000000000,0.000000000,0.000000000,0.000000000,0.000000000,0.000000000,0.000000000,0.000000000,0.000000000,0.000000000,0.000000000,0.000000000,0.000000000,0.000000000,2.517534683,2.208991920,0.159545898,-0.018615723,0.022521973,161.679506571,0.986755371,0.000000000,0.000000000,0.000000000,0.000000000,0.000000000,0.000000000
1720619266.804137,0.011999139,0.017453292,-0.001090831,0.000000000,0.000000000,0.000000000,0.000000000,0.000000000,0.000000000,0.000000000,0.000000000,0.000000000,0.000000000,0.000000000,0.000000000,0.000000000,0.000000000,0.000000000,0.000000000,2.564498613,2.236871625,0.159545898,-0.018981934,0.022827148,161.681036728,0.986755371,0.000000000,0.000000000,0.000000000,0.000000000,0.000000000,0.000000000
1720619266.851412,0.006544985,0.010908308,0.018544123,0.000000000,0.000000000,0.000000000,0.000000000,0.000000000,0.000000000,0.000000000,0.000000000,0.000000000,0.000000000,0.000000000,0.000000000,0.000000000,0.000000000,0.000000000,0.000000000,2.599681191,2.238940513,0.159301758,-0.019287109,0.022888184,161.709401630,0.986755371,0.000000000,0.000000000,0.000000000,0.000000000,0.000000000,0.000000000
1720619266.899561,0.003272492,0.006544985,0.022907447,0.000000000,0.000000000,0.000000000,0.000000000,0.000000000,0.000000000,0.000000000,0.000000000,0.000000000,0.000000000,0.000000000,0.000000000,0.000000000,0.000000000,0.000000000,0.000000000,2.606743088,2.245884061,0.158874512,-0.019348145,0.022949219,161.759168995,0.986816406,0.000000000,0.000000000,0.000000000,0.000000000,0.000000000,0.000000000
1720619266.948455,-0.003272492,-0.002181662,0.017453292,0.000000000,0.000000000,0.000000000,0.000000000,0.000000000,0.000000000,0.000000000,0.000000000,0.000000000,0.000000000,0.000000000,0.000000000,0.000000000,0.000000000,0.000000000,0.000000000,2.605504254,2.247094645,0.158386230,-0.019348145,0.022949219,161.816662138,0.986938477,0.000000000,0.000000000,0.000000000,0.000000000,0.000000000,0.000000000
1720619266.998203,-0.008726646,-0.005454154,0.004363323,0.000000000,0.000000000,0.000000000,0.000000000,0.000000000,0.000000000,0.000000000,0.000000000,0.000000000,0.000000000,0.000000000,0.000000000,0.000000000,0.000000000,0.000000000,0.000000000,2.604774064,2.247878195,0.158081055,-0.019348145,0.022949219,161.852317660,0.986999512,0.000000000,0.000000000,0.000000000,0.000000000,0.000000000,0.000000000
1720619267.048553,-0.011999139,-0.011999139,0.003272492,0.000000000,0.000000000,0.000000000,0.000000000,0.000000000,0.000000000,0.000000000,0.000000000,0.000000000,0.000000000,0.000000000,0.000000000,0.000000000,0.000000000,0.000000000,0.000000000,2.595671383,2.235156967,0.158081055,-0.019287109,0.022827148,161.851850668,0.986999512,0.000000000,0.000000000,0.000000000,0.000000000,0.000000000,0.000000000
1720619267.099229,-0.014180800,-0.014180800,0.001090831,0.000000000,0.000000000,0.000000000,0.000000000,0.000000000,0.000000000,0.000000000,0.000000000,0.000000000,0.000000000,0.000000000,0.000000000,0.000000000,0.000000000,0.000000000,0.000000000,2.554554367,2.199195246,0.158081055,-0.018981934,0.022460938,161.850246040,0.986999512,0.000000000,0.000000000,0.000000000,0.000000000,0.000000000,0.000000000
1720619267.149852,-0.016362462,-0.011999139,-0.002181662,0.000000000,0.000000000,0.000000000,0.000000000,0.000000000,0.000000000,0.000000000,0.000000000,0.000000000,0.000000000,0.000000000,0.000000000,0.000000000,0.000000000,0.000000000,0.000000000,2.519239410,2.155223021,0.158081055,-0.018737793,0.022033691,161.848600662,0.986999512,0.000000000,0.000000000,0.000000000,0.000000000,0.000000000,0.000000000
1720619267.200819,-0.011999139,-0.011999139,0.006544985,0.000000000,0.000000000,0.000000000,0.000000000,0.000000000,0.000000000,0.000000000,0.000000000,0.000000000,0.000000000,0.000000000,0.000000000,0.000000000,0.000000000,0.000000000,0.000000000,2.485022361,2.118162552,0.158081055,-0.018493652,0.021667480,161.847152634,0.986999512,0.000000000,0.000000000,0.000000000,0.000000000,0.000000000,0.000000000
1720619267.248271,-0.011999139,-0.006544985,0.006544985,0.000000000,0.000000000,0.000000000,0.000000000,0.000000000,0.000000000,0.000000000,0.000000000,0.000000000,0.000000000,0.000000000,0.000000000,0.000000000,0.000000000,0.000000000,0.000000000,2.465442059,2.085877857,0.158020020,-0.018371582,0.021362305,161.854110714,0.987060547,0.000000000,0.000000000,0.000000000,0.000000000,0.000000000,0.000000000
1720619267.297451,-0.005454154,-0.005454154,0.013089970,0.000000000,0.000000000,0.000000000,0.000000000,0.000000000,0.000000000,0.000000000,0.000000000,0.000000000,0.000000000,0.000000000,0.000000000,0.000000000,0.000000000,0.000000000,0.000000000,2.429412458,2.085137775,0.157775879,-0.018066406,0.021301270,161.881074811,0.987060547,0.000000000,0.000000000,0.000000000,0.000000000,0.000000000,0.000000000
1720619267.342349,-0.002181662,0.003272492,0.005454154,0.000000000,0.000000000,0.000000000,0.000000000,0.000000000,0.000000000,0.000000000,0.000000000,0.000000000,0.000000000,0.000000000,0.000000000,0.000000000,0.000000000,0.000000000,0.000000000,2.409424891,2.095574028,0.157653809,-0.017883301,0.021362305,161.895852778,0.987121582,0.000000000,0.000000000,0.000000000,0.000000000,0.000000000,0.000000000
1720619267.390365,0.003272492,0.009817477,0.005454154,0.000000000,0.000000000,0.000000000,0.000000000,0.000000000,0.000000000,0.000000000,0.000000000,0.000000000,0.000000000,0.000000000,0.000000000,0.000000000,0.000000000,0.000000000,0.000000000,2.388710998,2.098868864,0.157653809,-0.017700195,0.021362305,161.895542484,0.987121582,0.000000000,0.000000000,0.000000000,0.000000000,0.000000000,0.000000000
1720619267.437275,0.006544985,0.011999139,0.001090831,0.000000000,0.000000000,0.000000000,0.000000000,0.000000000,0.000000000,0.000000000,0.000000000,0.000000000,0.000000000,0.000000000,0.000000000,0.000000000,0.000000000,0.000000000,0.000000000,2.403617570,2.103582991,0.157653809,-0.017822266,0.021423340,161.895914593,0.987121582,0.000000000,0.000000000,0.000000000,0.000000000,0.000000000,0.000000000
1720619267.484356,0.009817477,0.021816615,0.005454154,0.000000000,0.000000000,0.000000000,0.000000000,0.000000000,0.000000000,0.000000000,0.000000000,0.000000000,0.000000000,0.000000000,0.000000000,0.000000000,0.000000000,0.000000000,0.000000000,2.426525776,2.114109769,0.157653809,-0.018005371,0.021545410,161.896558376,0.987121582,0.000000000,0.000000000,0.000000000,0.000000000,0.000000000,0.000000000
1720619267.533219,0.011999139,0.021816615,0.008726646,0.000000000,0.000000000,0.000000000,0.000000000,0.000000000,0.000000000,0.000000000,0.000000000,0.000000000,0.000000000,0.000000000,0.000000000,0.000000000,0.000000000,0.000000000,0.000000000,2.452619062,2.145537709,0.157592773,-0.018188477,0.021850586,161.904622231,0.987121582,0.000000000,0.000000000,0.000000000,0.000000000,0.000000000,0.000000000
1720619267.582423,0.008726646,0.018544123,0.006544985,0.000000000,0.000000000,0.000000000,0.000000000,0.000000000,0.000000000,0.000000000,0.000000000,0.000000000,0.000000000,0.000000000,0.000000000,0.000000000,0.000000000,0.000000000,0.000000000,2.493613042,2.181686844,0.157531738,-0.018493652,0.022216797,161.913086592,0.987121582,0.000000000,0.000000000,0.000000000,0.000000000,0.000000000,0.000000000
1720619267.632268,0.008726646,0.015271631,0.005454154,0.000000000,0.000000000,0.000000000,0.000000000,0.000000000,0.000000000,0.000000000,0.000000000,0.000000000,0.000000000,0.000000000,0.000000000,0.000000000,0.000000000,0.000000000,0.000000000,2.524583741,2.198313932,0.157470703,-0.018737793,0.022399902,161.919850248,0.987060547,0.000000000,0.000000000,0.000000000,0.000000000,0.000000000,0.000000000
1720619267.681413,0.005454154,0.011999139,0.003272492,0.000000000,0.000000000,0.000000000,0.000000000,0.000000000,0.000000000,0.000000000,0.000000000,0.000000000,0.000000000,0.000000000,0.000000000,0.000000000,0.000000000,0.000000000,0.000000000,2.546394122,2.201935730,0.157470703,-0.018920898,0.022460938,161.920349438,0.987060547,0.000000000,0.000000000,0.000000000,0.000000000,0.000000000,0.000000000
1720619267.729155,0.003272492,0.007635816,0.006544985,0.000000000,0.000000000,0.000000000,0.000000000,0.000000000,0.000000000,0.000000000,0.000000000,0.000000000,0.000000000,0.000000000,0.000000000,0.000000000,0.000000000,0.000000000,0.000000000,2.526492342,2.212201705,0.157409668,-0.018737793,0.022521973,161.928205146,0.987121582,0.000000000,0.000000000,0.000000000,0.000000000,0.000000000,0.000000000
1720619267.776497,-0.002181662,0.001090831,0.011999139,0.000000000,0.000000000,0.000000000,0.000000000,0.000000000,0.000000000,0.000000000,0.000000000,0.000000000,0.000000000,0.000000000,0.000000000,0.000000000,0.000000000,0.000000000,0.000000000,2.506323579,2.223263801,0.157104492,-0.018554688,0.022583008,161.962607583,0.987121582,0.000000000,0.000000000,0.000000000,0.000000000,0.000000000,0.000000000
1720619267.825284,-0.004363323,-0.006544985,0.005454154,0.000000000,0.000000000,0.000000000,0.000000000,0.000000000,0.000000000,0.000000000,0.000000000,0.000000000,0.000000000,0.000000000,0.000000000,0.000000000,0.000000000,0.000000000,0.000000000,2.492512852,2.225451924,0.157104492,-0.018432617,0.022583008,161.962387091,0.987121582,0.000000000,0.000000000,0.000000000,0.000000000,0.000000000,0.000000000
1720619267.874660,-0.008726646,-0.011999139,0.005454154,0.000000000,0.000000000,0.000000000,0.000000000,0.000000000,0.000000000,0.000000000,0.000000000,0.000000000,0.000000000,0.000000000,0.000000000,0.000000000,0.000000000,0.000000000,0.000000000,2.457816337,2.230811378,0.157104492,-0.018127441,0.022583008,161.962927614,0.987182617,0.000000000,0.000000000,0.000000000,0.000000000,0.000000000,0.000000000
1720619267.924180,-0.008726646,-0.017453292,0.013089970,0.000000000,0.000000000,0.000000000,0.000000000,0.000000000,0.000000000,0.000000000,0.000000000,0.000000000,0.000000000,0.000000000,0.000000000,0.000000000,0.000000000,0.000000000,0.000000000,2.410461569,2.245547685,0.157043457,-0.017700195,0.022644043,161.969225332,0.987182617,0.000000000,0.000000000,0.000000000,0.000000000,0.000000000,0.000000000
1720619267.974462,-0.008726646,-0.018544123,0.009817477,0.000000000,0.000000000,0.000000000,0.000000000,0.000000000,0.000000000,0.000000000,0.000000000,0.000000000,0.000000000,0.000000000,0.000000000,0.000000000,0.000000000,0.000000000,0.000000000,2.352695911,2.240964756,0.156860352,-0.017211914,0.022521973,161.988729320,0.987182617,0.000000000,0.000000000,0.000000000,0.000000000,0.000000000,0.000000000
1720619268.023294,-0.009817477,-0.014180800,0.005454154,0.000000000,0.000000000,0.000000000,0.000000000,0.000000000,0.000000000,0.000000000,0.000000000,0.000000000,0.000000000,0.000000000,0.000000000,0.000000000,0.000000000,0.000000000,0.000000000,2.295106110,2.235769635,0.156860352,-0.016723633,0.022399902,161.988596359,0.987243652,0.000000000,0.000000000,0.000000000,0.000000000,0.000000000,0.000000000
1720619268.072582,-0.006544985,-0.010908308,0.008726646,0.000000000,0.000000000,0.000000000,0.000000000,0.000000000,0.000000000,0.000000000,0.000000000,0.000000000,0.000000000,0.000000000,0.000000000,0.000000000,0.000000000,0.000000000,0.000000000,2.244583755,2.229595852,0.156860352,-0.016296387,0.022277832,161.987489126,0.987243652,0.000000000,0.000000000,0.000000000,0.000000000,0.000000000,0.000000000
1720619268.118397,-0.004363323,-0.003272492,0.010908308,0.000000000,0.000000000,0.000000000,0.000000000,0.000000000,0.000000000,0.000000000,0.000000000,0.000000000,0.000000000,0.000000000,0.000000000,0.000000000,0.000000000,0.000000000,0.000000000,2.216620751,2.234431702,0.156677246,-0.016052246,0.022277832,162.007769086,0.987243652,0.000000000,0.000000000,0.000000000,0.000000000,0.000000000,0.000000000
1720619268.167224,0.000000000,0.002181662,0.014180800,0.000000000,0.000000000,0.000000000,0.000000000,0.000000000,0.000000000,0.000000000,0.000000000,0.000000000,0.000000000,0.000000000,0.000000000,0.000000000,0.000000000,0.000000000,0.000000000,2.203402447,2.243874530,0.156494141,-0.015930176,0.022338867,162.029520197,0.987304688,0.000000000,0.000000000,0.000000000,0.000000000,0.000000000,0.000000000
1720619268.216374,0.001090831,0.008726646,0.004363323,0.000000000,0.000000000,0.000000000,0.000000000,0.000000000,0.000000000,0.000000000,0.000000000,0.000000000,0.000000000,0.000000000,0.000000000,0.000000000,0.000000000,0.000000000,0.000000000,2.189475812,2.246208286,0.156433105,-0.015808105,0.022338867,162.036202465,0.987304688,0.000000000,0.000000000,0.000000000,0.000000000,0.000000000,0.000000000
1720619268.266580,0.004363323,0.017453292,0.005454154,0.000000000,0.000000000,0.000000000,0.000000000,0.000000000,0.000000000,0.000000000,0.000000000,0.000000000,0.000000000,0.000000000,0.000000000,0.000000000,0.000000000,0.000000000,0.000000000,2.203288195,2.244028823,0.156433105,-0.015930176,0.022338867,162.036431421,0.987304688,0.000000000,0.000000000,0.000000000,0.000000000,0.000000000,0.000000000
1720619268.316435,0.005454154,0.017453292,0.007635816,0.000000000,0.000000000,0.000000000,0.000000000,0.000000000,0.000000000,0.000000000,0.000000000,0.000000000,0.000000000,0.000000000,0.000000000,0.000000000,0.000000000,0.000000000,0.000000000,2.252719971,2.243312474,0.156433105,-0.016357422,0.022399902,162.037385836,0.987304688,0.000000000,0.000000000,0.000000000,0.000000000,0.000000000,0.000000000
1720619268.366421,0.005454154,0.017453292,0.009817477,0.000000000,0.000000000,0.000000000,0.000000000,0.000000000,0.000000000,0.000000000,0.000000000,0.000000000,0.000000000,0.000000000,0.000000000,0.000000000,0.000000000,0.000000000,0.000000000,2.302898557,2.249989567,0.156250000,-0.016784668,0.022521973,162.059235207,0.987304688,0.000000000,0.000000000,0.000000000,0.000000000,0.000000000,0.000000000
1720619268.415457,0.005454154,0.019634955,0.006544985,0.000000000,0.000000000,0.000000000,0.000000000,0.000000000,0.000000000,0.000000000,0.000000000,0.000000000,0.000000000,0.000000000,0.000000000,0.000000000,0.000000000,0.000000000,0.000000000,2.359123282,2.248359449,0.156188965,-0.017272949,0.022583008,162.067217215,0.987304688,0.000000000,0.000000000,0.000000000,0.000000000,0.000000000,0.000000000
1720619268.463310,0.004363323,0.016362462,0.004363323,0.000000000,0.000000000,0.000000000,0.000000000,0.000000000,0.000000000,0.000000000,0.000000000,0.000000000,0.000000000,0.000000000,0.000000000,0.000000000,0.000000000,0.000000000,0.000000000,2.408554378,2.247657684,0.156188965,-0.017700195,0.022644043,162.068172871,0.987304688,0.000000000,0.000000000,0.000000000,0.000000000,0.000000000,0.000000000
1720619268.510390,0.003272492,0.007635816,0.011999139,0.000000000,0.000000000,0.000000000,0.000000000,0.000000000,0.000000000,0.000000000,0.000000000,0.000000000,0.000000000,0.000000000,0.000000000,0.000000000,0.000000000,0.000000000,0.000000000,2.444059905,2.249300769,0.156127930,-0.018005371,0.022705078,162.075815914,0.987304688,0.000000000,0.000000000,0.000000000,0.000000000,0.000000000,0.000000000
1720619268.561121,0.000000000,0.005454154,0.013089970,0.000000000,0.000000000,0.000000000,0.000000000,0.000000000,0.000000000,0.000000000,0.000000000,0.000000000,0.000000000,0.000000000,0.000000000,0.000000000,0.000000000,0.000000000,0.000000000,2.450460443,2.248608922,0.155944824,-0.018066406,0.022705078,162.097752698,0.987365723,0.000000000,0.000000000,0.000000000,0.000000000,0.000000000,0.000000000
1720619268.610013,-0.002181662,-0.004363323,0.004363323,0.000000000,0.000000000,0.000000000,0.000000000,0.000000000,0.000000000,0.000000000,0.000000000,0.000000000,0.000000000,0.000000000,0.000000000,0.000000000,0.000000000,0.000000000,0.000000000,2.450123546,2.249116479,0.155761719,-0.018066406,0.022705078,162.118491160,0.987365723,0.000000000,0.000000000,0.000000000,0.000000000,0.000000000,0.000000000
1720619268.657244,-0.005454154,-0.007635816,0.011999139,0.000000000,0.000000000,0.000000000,0.000000000,0.000000000,0.000000000,0.000000000,0.000000000,0.000000000,0.000000000,0.000000000,0.000000000,0.000000000,0.000000000,0.000000000,0.000000000,2.450123546,2.249116479,0.155761719,-0.018066406,0.022705078,162.118491160,0.987365723,0.000000000,0.000000000,0.000000000,0.000000000,0.000000000,0.000000000
1720619268.706394,-0.005454154,-0.008726646,0.010908308,0.000000000,0.000000000,0.000000000,0.000000000,0.000000000,0.000000000,0.000000000,0.000000000,0.000000000,0.000000000,0.000000000,0.000000000,0.000000000,0.000000000,0.000000000,0.000000000,2.442710781,2.250594713,0.155578613,-0.018005371,0.022705078,162.140201567,0.987426758,0.000000000,0.000000000,0.000000000,0.000000000,0.000000000,0.000000000
1720619268.753276,-0.005454154,-0.013089970,0.011999139,0.000000000,0.000000000,0.000000000,0.000000000,0.000000000,0.000000000,0.000000000,0.000000000,0.000000000,0.000000000,0.000000000,0.000000000,0.000000000,0.000000000,0.000000000,0.000000000,2.406251417,2.249984421,0.155212402,-0.017700195,0.022644043,162.182030661,0.987487793,0.000000000,0.000000000,0.000000000,0.000000000,0.000000000,0.000000000
1720619268.801568,-0.007635816,-0.013089970,0.005454154,0.000000000,0.000000000,0.000000000,0.000000000,0.000000000,0.000000000,0.000000000,0.000000000,0.000000000,0.000000000,0.000000000,0.000000000,0.000000000,0.000000000,0.000000000,0.000000000,2.378622692,2.254307610,0.155212402,-0.017456055,0.022644043,162.181577655,0.987487793,0.000000000,0.000000000,0.000000000,0.000000000,0.000000000,0.000000000
1720619268.849232,-0.004363323,-0.010908308,0.009817477,0.000000000,0.000000000,0.000000000,0.000000000,0.000000000,0.000000000,0.000000000,0.000000000,0.000000000,0.000000000,0.000000000,0.000000000,0.000000000,0.000000000,0.000000000,0.000000000,2.342779160,2.253124086,0.155090332,-0.017150879,0.022583008,162.194672129,0.987487793,0.000000000,0.000000000,0.000000000,0.000000000,0.000000000,0.000000000
1720619268.896405,-0.002181662,-0.009817477,0.015271631,0.000000000,0.000000000,0.000000000,0.000000000,0.000000000,0.000000000,0.000000000,0.000000000,0.000000000,0.000000000,0.000000000,0.000000000,0.000000000,0.000000000,0.000000000,0.000000000,2.335140128,2.254901195,0.154785156,-0.017089844,0.022583008,162.230204392,0.987548828,0.000000000,0.000000000,0.000000000,0.000000000,0.000000000,0.000000000
1720619268.943220,0.000000000,-0.001090831,0.006544985,0.000000000,0.000000000,0.000000000,0.000000000,0.000000000,0.000000000,0.000000000,0.000000000,0.000000000,0.000000000,0.000000000,0.000000000,0.000000000,0.000000000,0.000000000,0.000000000,2.334684228,2.255549761,0.154541016,-0.017089844,0.022583008,162.257859610,0.987548828,0.000000000,0.000000000,0.000000000,0.000000000,0.000000000,0.000000000
1720619268.992466,0.003272492,0.001090831,0.003272492,0.000000000,0.000000000,0.000000000,0.000000000,0.000000000,0.000000000,0.000000000,0.000000000,0.000000000,0.000000000,0.000000000,0.000000000,0.000000000,0.000000000,0.000000000,0.000000000,2.334408235,2.255597746,0.154479980,-0.017089844,0.022583008,162.265849562,0.987609863,0.000000000,0.000000000,0.000000000,0.000000000,0.000000000,0.000000000
1720619269.042279,0.004363323,0.008726646,0.009817477,0.000000000,0.000000000,0.000000000,0.000000000,0.000000000,0.000000000,0.000000000,0.000000000,0.000000000,0.000000000,0.000000000,0.000000000,0.000000000,0.000000000,0.000000000,0.000000000,2.341316277,2.254521992,0.154479980,-0.017150879,0.022583008,162.265963622,0.987609863,0.000000000,0.000000000,0.000000000,0.000000000,0.000000000,0.000000000
1720619269.096343,0.004363323,0.011999139,0.013089970,0.000000000,0.000000000,0.000000000,0.000000000,0.000000000,0.000000000,0.000000000,0.000000000,0.000000000,0.000000000,0.000000000,0.000000000,0.000000000,0.000000000,0.000000000,0.000000000,2.355864894,2.259774629,0.154296875,-0.017272949,0.022644043,162.287096830,0.987609863,0.000000000,0.000000000,0.000000000,0.000000000,0.000000000,0.000000000
1720619269.142018,0.005454154,0.015271631,0.014180800,0.000000000,0.000000000,0.000000000,0.000000000,0.000000000,0.000000000,0.000000000,0.000000000,0.000000000,0.000000000,0.000000000,0.000000000,0.000000000,0.000000000,0.000000000,0.000000000,2.390745157,2.262030329,0.153991699,-0.017578125,0.022705078,162.323477327,0.987670898,0.000000000,0.000000000,0.000000000,0.000000000,0.000000000,0.000000000
1720619269.189698,0.003272492,0.014180800,0.009817477,0.000000000,0.000000000,0.000000000,0.000000000,0.000000000,0.000000000,0.000000000,0.000000000,0.000000000,0.000000000,0.000000000,0.000000000,0.000000000,0.000000000,0.000000000,0.000000000,2.433153807,2.262679822,0.153930664,-0.017944336,0.022766113,162.331242177,0.987670898,0.000000000,0.000000000,0.000000000,0.000000000,0.000000000,0.000000000
1720619269.240317,0.002181662,0.015271631,0.001090831,0.000000000,0.000000000,0.000000000,0.000000000,0.000000000,0.000000000,0.000000000,0.000000000,0.000000000,0.000000000,0.000000000,0.000000000,0.000000000,0.000000000,0.000000000,0.000000000,2.467696566,2.257321205,0.153930664,-0.018249512,0.022766113,162.331809187,0.987670898,0.000000000,0.000000000,0.000000000,0.000000000,0.000000000,0.000000000
1720619269.287834,0.000000000,0.009817477,0.008726646,0.000000000,0.000000000,0.000000000,0.000000000,0.000000000,0.000000000,0.000000000,0.000000000,0.000000000,0.000000000,0.000000000,0.000000000,0.000000000,0.000000000,0.000000000,0.000000000,2.503196858,2.259050148,0.153869629,-0.018554688,0.022827148,162.339460268,0.987670898,0.000000000,0.000000000,0.000000000,0.000000000,0.000000000,0.000000000
1720619269.339713,-0.004363323,0.007635816,0.010908308,0.000000000,0.000000000,0.000000000,0.000000000,0.000000000,0.000000000,0.000000000,0.000000000,0.000000000,0.000000000,0.000000000,0.000000000,0.000000000,0.000000000,0.000000000,0.000000000,2.495836558,2.260808661,0.153625488,-0.018493652,0.022827148,162.367008933,0.987670898,0.000000000,0.000000000,0.000000000,0.000000000,0.000000000,0.000000000
1720619269.382109,-0.006544985,0.004363323,0.015271631,0.000000000,0.000000000,0.000000000,0.000000000,0.000000000,0.000000000,0.000000000,0.000000000,0.000000000,0.000000000,0.000000000,0.000000000,0.000000000,0.000000000,0.000000000,0.000000000,2.494873600,2.261897782,0.153198242,-0.018493652,0.022827148,162.416488357,0.987731934,0.000000000,0.000000000,0.000000000,0.000000000,0.000000000,0.000000000
1720619269.431941,-0.008726646,-0.001090831,0.007635816,0.000000000,0.000000000,0.000000000,0.000000000,0.000000000,0.000000000,0.000000000,0.000000000,0.000000000,0.000000000,0.000000000,0.000000000,0.000000000,0.000000000,0.000000000,0.000000000,2.494702068,2.261784553,0.153198242,-0.018493652,0.022827148,162.417554906,0.987792969,0.000000000,0.000000000,0.000000000,0.000000000,0.000000000,0.000000000
1720619269.477008,-0.009817477,-0.003272492,0.008726646,0.000000000,0.000000000,0.000000000,0.000000000,0.000000000,0.000000000,0.000000000,0.000000000,0.000000000,0.000000000,0.000000000,0.000000000,0.000000000,0.000000000,0.000000000,0.000000000,2.494702068,2.261784553,0.153198242,-0.018493652,0.022827148,162.417554906,0.987792969,0.000000000,0.000000000,0.000000000,0.000000000,0.000000000,0.000000000
1720619269.524426,-0.009817477,-0.006544985,0.011999139,0.000000000,0.000000000,0.000000000,0.000000000,0.000000000,0.000000000,0.000000000,0.000000000,0.000000000,0.000000000,0.000000000,0.000000000,0.000000000,0.000000000,0.000000000,0.000000000,2.494362615,2.262299557,0.153015137,-0.018493652,0.022827148,162.438302707,0.987792969,0.000000000,0.000000000,0.000000000,0.000000000,0.000000000,0.000000000
1720619269.575671,-0.006544985,-0.007635816,0.013089970,0.000000000,0.000000000,0.000000000,0.000000000,0.000000000,0.000000000,0.000000000,0.000000000,0.000000000,0.000000000,0.000000000,0.000000000,0.000000000,0.000000000,0.000000000,0.000000000,2.493398356,2.263387418,0.152587891,-0.018493652,0.022827148,162.487781074,0.987854004,0.000000000,0.000000000,0.000000000,0.000000000,0.000000000,0.000000000
1720619269.622354,-0.004363323,-0.002181662,0.011999139,0.000000000,0.000000000,0.000000000,0.000000000,0.000000000,0.000000000,0.000000000,0.000000000,0.000000000,0.000000000,0.000000000,0.000000000,0.000000000,0.000000000,0.000000000,0.000000000,2.485749762,2.265191634,0.152282715,-0.018432617,0.022827148,162.523312315,0.987915039,0.000000000,0.000000000,0.000000000,0.000000000,0.000000000,0.000000000
1720619269.670469,-0.001090831,-0.004363323,0.010908308,0.000000000,0.000000000,0.000000000,0.000000000,0.000000000,0.000000000,0.000000000,0.000000000,0.000000000,0.000000000,0.000000000,0.000000000,0.000000000,0.000000000,0.000000000,0.000000000,2.485636184,2.265362701,0.152221680,-0.018432617,0.022827148,162.530229202,0.987915039,0.000000000,0.000000000,0.000000000,0.000000000,0.000000000,0.000000000
1720619269.716338,0.001090831,0.000000000,0.016362462,0.000000000,0.000000000,0.000000000,0.000000000,0.000000000,0.000000000,0.000000000,0.000000000,0.000000000,0.000000000,0.000000000,0.000000000,0.000000000,0.000000000,0.000000000,0.000000000,2.485010801,2.265933083,0.151977539,-0.018432617,0.022827148,162.558956046,0.987976074,0.000000000,0.000000000,0.000000000,0.000000000,0.000000000,0.000000000
1720619269.765375,0.005454154,0.001090831,0.011999139,0.000000000,0.000000000,0.000000000,0.000000000,0.000000000,0.000000000,0.000000000,0.000000000,0.000000000,0.000000000,0.000000000,0.000000000,0.000000000,0.000000000,0.000000000,0.000000000,2.485382882,2.273876685,0.151611328,-0.018432617,0.022888184,162.600631651,0.987976074,0.000000000,0.000000000,0.000000000,0.000000000,0.000000000,0.000000000
1720619269.814461,0.006544985,0.002181662,0.006544985,0.000000000,0.000000000,0.000000000,0.000000000,0.000000000,0.000000000,0.000000000,0.000000000,0.000000000,0.000000000,0.000000000,0.000000000,0.000000000,0.000000000,0.000000000,0.000000000,2.484869285,2.274275436,0.151428223,-0.018432617,0.022888184,162.622439839,0.988037109,0.000000000,0.000000000,0.000000000,0.000000000,0.000000000,0.000000000
1720619269.862195,0.009817477,0.008726646,0.017453292,0.000000000,0.000000000,0.000000000,0.000000000,0.000000000,0.000000000,0.000000000,0.000000000,0.000000000,0.000000000,0.000000000,0.000000000,0.000000000,0.000000000,0.000000000,0.000000000,2.491438020,2.273735499,0.151245117,-0.018493652,0.022888184,162.643308129,0.988037109,0.000000000,0.000000000,0.000000000,0.000000000,0.000000000,0.000000000
1720619269.909438,0.009817477,0.008726646,0.014180800,0.000000000,0.000000000,0.000000000,0.000000000,0.000000000,0.000000000,0.000000000,0.000000000,0.000000000,0.000000000,0.000000000,0.000000000,0.000000000,0.000000000,0.000000000,0.000000000,2.492910074,2.288143076,0.151000977,-0.018493652,0.023010254,162.672375961,0.988098145,0.000000000,0.000000000,0.000000000,0.000000000,0.000000000,0.000000000
1720619269.958374,0.006544985,0.011999139,0.010908308,0.000000000,0.000000000,0.000000000,0.000000000,0.000000000,0.000000000,0.000000000,0.000000000,0.000000000,0.000000000,0.000000000,0.000000000,0.000000000,0.000000000,0.000000000,0.000000000,2.500007247,2.294927065,0.150634766,-0.018554688,0.023071289,162.715223609,0.988159180,0.000000000,0.000000000,0.000000000,0.000000000,0.000000000,0.000000000
1720619270.006243,0.006544985,0.010908308,0.009817477,0.000000000,0.000000000,0.000000000,0.000000000,0.000000000,0.000000000,0.000000000,0.000000000,0.000000000,0.000000000,0.000000000,0.000000000,0.000000000,0.000000000,0.000000000,0.000000000,2.520628150,2.291954892,0.150573730,-0.018737793,0.023071289,162.722488668,0.988159180,0.000000000,0.000000000,0.000000000,0.000000000,0.000000000,0.000000000
1720619270.052470,0.002181662,0.008726646,0.010908308,0.000000000,0.000000000,0.000000000,0.000000000,0.000000000,0.000000000,0.000000000,0.000000000,0.000000000,0.000000000,0.000000000,0.000000000,0.000000000,0.000000000,0.000000000,0.000000000,2.520397789,2.292301332,0.150451660,-0.018737793,0.023071289,162.736326554,0.988159180,0.000000000,0.000000000,0.000000000,0.000000000,0.000000000,0.000000000
1720619270.100362,-0.001090831,0.005454154,0.019634955,0.000000000,0.000000000,0.000000000,0.000000000,0.000000000,0.000000000,0.000000000,0.000000000,0.000000000,0.000000000,0.000000000,0.000000000,0.000000000,0.000000000,0.000000000,0.000000000,2.520692547,2.299971105,0.150146484,-0.018737793,0.023132324,162.772141793,0.988220215,0.000000000,0.000000000,0.000000000,0.000000000,0.000000000,0.000000000
1720619270.149326,-0.008726646,0.003272492,0.013089970,0.000000000,0.000000000,0.000000000,0.000000000,0.000000000,0.000000000,0.000000000,0.000000000,0.000000000,0.000000000,0.000000000,0.000000000,0.000000000,0.000000000,0.000000000,0.000000000,2.519940656,2.300721323,0.149841309,-0.018737793,0.023132324,162.807782696,0.988281250,0.000000000,0.000000000,0.000000000,0.000000000,0.000000000,0.000000000
1720619270.199551,-0.011999139,0.000000000,0.004363323,0.000000000,0.000000000,0.000000000,0.000000000,0.000000000,0.000000000,0.000000000,0.000000000,0.000000000,0.000000000,0.000000000,0.000000000,0.000000000,0.000000000,0.000000000,0.000000000,2.518552444,2.294320935,0.149658203,-0.018737793,0.023071289,162.828368675,0.988281250,0.000000000,0.000000000,0.000000000,0.000000000,0.000000000,0.000000000
1720619270.249760,-0.014180800,-0.009817477,0.009817477,0.000000000,0.000000000,0.000000000,0.000000000,0.000000000,0.000000000,0.000000000,0.000000000,0.000000000,0.000000000,0.000000000,0.000000000,0.000000000,0.000000000,0.000000000,0.000000000,2.522229457,2.272692544,0.149597168,-0.018798828,0.022888184,162.834884480,0.988281250,0.000000000,0.000000000,0.000000000,0.000000000,0.000000000,0.000000000
1720619270.299518,-0.014180800,-0.002181662,0.014180800,0.000000000,0.000000000,0.000000000,0.000000000,0.000000000,0.000000000,0.000000000,0.000000000,0.000000000,0.000000000,0.000000000,0.000000000,0.000000000,0.000000000,0.000000000,0.000000000,2.515368106,2.231749132,0.149353027,-0.018798828,0.022521973,162.862569755,0.988342285,0.000000000,0.000000000,0.000000000,0.000000000,0.000000000,0.000000000
1720619270.349382,-0.016362462,-0.004363323,0.019634955,0.000000000,0.000000000,0.000000000,0.000000000,0.000000000,0.000000000,0.000000000,0.000000000,0.000000000,0.000000000,0.000000000,0.000000000,0.000000000,0.000000000,0.000000000,0.000000000,2.515112496,2.190281252,0.148925781,-0.018859863,0.022155762,162.911130144,0.988403320,0.000000000,0.000000000,0.000000000,0.000000000,0.000000000,0.000000000
1720619270.399234,-0.009817477,-0.003272492,0.013089970,0.000000000,0.000000000,0.000000000,0.000000000,0.000000000,0.000000000,0.000000000,0.000000000,0.000000000,0.000000000,0.000000000,0.000000000,0.000000000,0.000000000,0.000000000,0.000000000,2.518098971,2.169404510,0.148559570,-0.018920898,0.021972656,162.953285100,0.988464355,0.000000000,0.000000000,0.000000000,0.000000000,0.000000000,0.000000000
1720619270.450237,-0.006544985,0.000000000,0.004363323,0.000000000,0.000000000,0.000000000,0.000000000,0.000000000,0.000000000,0.000000000,0.000000000,0.000000000,0.000000000,0.000000000,0.000000000,0.000000000,0.000000000,0.000000000,0.000000000,2.516032291,2.155562155,0.148559570,-0.018920898,0.021850586,162.952941864,0.988464355,0.000000000,0.000000000,0.000000000,0.000000000,0.000000000,0.000000000
1720619270.497614,-0.002181662,0.005454154,0.014180800,0.000000000,0.000000000,0.000000000,0.000000000,0.000000000,0.000000000,0.000000000,0.000000000,0.000000000,0.000000000,0.000000000,0.000000000,0.000000000,0.000000000,0.000000000,0.000000000,2.515324142,2.156311968,0.148254395,-0.018920898,0.021850586,162.988581612,0.988525391,0.000000000,0.000000000,0.000000000,0.000000000,0.000000000,0.000000000
1720619270.542419,0.003272492,0.006544985,0.016362462,0.000000000,0.000000000,0.000000000,0.000000000,0.000000000,0.000000000,0.000000000,0.000000000,0.000000000,0.000000000,0.000000000,0.000000000,0.000000000,0.000000000,0.000000000,0.000000000,2.514723064,2.156889962,0.148010254,-0.018920898,0.021850586,163.017298705,0.988586426,0.000000000,0.000000000,0.000000000,0.000000000,0.000000000,0.000000000
1720619270.591194,0.008726646,0.007635816,0.015271631,0.000000000,0.000000000,0.000000000,0.000000000,0.000000000,0.000000000,0.000000000,0.000000000,0.000000000,0.000000000,0.000000000,0.000000000,0.000000000,0.000000000,0.000000000,0.000000000,2.513691208,2.158152734,0.147521973,-0.018920898,0.021850586,163.073701684,0.988647461,0.000000000,0.000000000,0.000000000,0.000000000,0.000000000,0.000000000
1720619270.641508,0.013089970,0.011999139,0.014180800,0.000000000,0.000000000,0.000000000,0.000000000,0.000000000,0.000000000,0.000000000,0.000000000,0.000000000,0.000000000,0.000000000,0.000000000,0.000000000,0.000000000,0.000000000,0.000000000,2.536972353,2.176702198,0.147216797,-0.019104004,0.022033691,163.109154568,0.988647461,0.000000000,0.000000000,0.000000000,0.000000000,0.000000000,0.000000000
1720619270.686206,0.014180800,0.014180800,0.006544985,0.000000000,0.000000000,0.000000000,0.000000000,0.000000000,0.000000000,0.000000000,0.000000000,0.000000000,0.000000000,0.000000000,0.000000000,0.000000000,0.000000000,0.000000000,0.000000000,2.577297940,2.213355277,0.147094727,-0.019409180,0.022399902,163.125617732,0.988708496,0.000000000,0.000000000,0.000000000,0.000000000,0.000000000,0.000000000
1720619270.736380,0.015271631,0.011999139,0.018544123,0.000000000,0.000000000,0.000000000,0.000000000,0.000000000,0.000000000,0.000000000,0.000000000,0.000000000,0.000000000,0.000000000,0.000000000,0.000000000,0.000000000,0.000000000,0.000000000,2.602821164,2.245429492,0.146911621,-0.019592285,0.022705078,163.147602938,0.988708496,0.000000000,0.000000000,0.000000000,0.000000000,0.000000000,0.000000000
1720619270.783310,0.011999139,0.013089970,0.016362462,0.000000000,0.000000000,0.000000000,0.000000000,0.000000000,0.000000000,0.000000000,0.000000000,0.000000000,0.000000000,0.000000000,0.000000000,0.000000000,0.000000000,0.000000000,0.000000000,2.607967369,2.288098811,0.146484375,-0.019592285,0.023071289,163.198152272,0.988769531,0.000000000,0.000000000,0.000000000,0.000000000,0.000000000,0.000000000
1720619270.835337,0.009817477,0.008726646,0.017453292,0.000000000,0.000000000,0.000000000,0.000000000,0.000000000,0.000000000,0.000000000,0.000000000,0.000000000,0.000000000,0.000000000,0.000000000,0.000000000,0.000000000,0.000000000,0.000000000,2.612177866,2.323669995,0.146118164,-0.019592285,0.023376465,163.241602700,0.988830566,0.000000000,0.000000000,0.000000000,0.000000000,0.000000000,0.000000000
1720619270.881517,0.007635816,0.000000000,0.010908308,0.000000000,0.000000000,0.000000000,0.000000000,0.000000000,0.000000000,0.000000000,0.000000000,0.000000000,0.000000000,0.000000000,0.000000000,0.000000000,0.000000000,0.000000000,0.000000000,2.611709537,2.324384015,0.145874023,-0.019592285,0.023376465,163.269298353,0.988830566,0.000000000,0.000000000,0.000000000,0.000000000,0.000000000,0.000000000
1720619270.929260,-0.001090831,-0.004363323,0.007635816,0.000000000,0.000000000,0.000000000,0.000000000,0.000000000,0.000000000,0.000000000,0.000000000,0.000000000,0.000000000,0.000000000,0.000000000,0.000000000,0.000000000,0.000000000,0.000000000,2.611358042,2.324919414,0.145690918,-0.019592285,0.023376465,163.290071377,0.988830566,0.000000000,0.000000000,0.000000000,0.000000000,0.000000000,0.000000000
1720619270.976608,-0.005454154,-0.004363323,0.018544123,0.000000000,0.000000000,0.000000000,0.000000000,0.000000000,0.000000000,0.000000000,0.000000000,0.000000000,0.000000000,0.000000000,0.000000000,0.000000000,0.000000000,0.000000000,0.000000000,2.596875982,2.327539599,0.145446777,-0.019470215,0.023376465,163.318547390,0.988891602,0.000000000,0.000000000,0.000000000,0.000000000,0.000000000,0.000000000
1720619271.025188,-0.009817477,-0.009817477,0.019634955,0.000000000,0.000000000,0.000000000,0.000000000,0.000000000,0.000000000,0.000000000,0.000000000,0.000000000,0.000000000,0.000000000,0.000000000,0.000000000,0.000000000,0.000000000,0.000000000,2.574113680,2.324766467,0.145019531,-0.019287109,0.023315430,163.367501163,0.988952637,0.000000000,0.000000000,0.000000000,0.000000000,0.000000000,0.000000000
1720619271.074431,-0.016362462,-0.004363323,0.008726646,0.000000000,0.000000000,0.000000000,0.000000000,0.000000000,0.000000000,0.000000000,0.000000000,0.000000000,0.000000000,0.000000000,0.000000000,0.000000000,0.000000000,0.000000000,0.000000000,2.549343226,2.308123217,0.144592285,-0.019104004,0.023132324,163.416106735,0.989013672,0.000000000,0.000000000,0.000000000,0.000000000,0.000000000,0.000000000
1720619271.123249,-0.018544123,-0.008726646,0.011999139,0.000000000,0.000000000,0.000000000,0.000000000,0.000000000,0.000000000,0.000000000,0.000000000,0.000000000,0.000000000,0.000000000,0.000000000,0.000000000,0.000000000,0.000000000,0.000000000,2.521264212,2.262722257,0.144531250,-0.018920898,0.022705078,163.422476990,0.989074707,0.000000000,0.000000000,0.000000000,0.000000000,0.000000000,0.000000000
1720619271.170335,-0.019634955,-0.002181662,0.010908308,0.000000000,0.000000000,0.000000000,0.000000000,0.000000000,0.000000000,0.000000000,0.000000000,0.000000000,0.000000000,0.000000000,0.000000000,0.000000000,0.000000000,0.000000000,0.000000000,2.493634805,2.225098843,0.144165039,-0.018737793,0.022338867,163.463664502,0.989135742,0.000000000,0.000000000,0.000000000,0.000000000,0.000000000,0.000000000
1720619271.217534,-0.017453292,0.000000000,0.018544123,0.000000000,0.000000000,0.000000000,0.000000000,0.000000000,0.000000000,0.000000000,0.000000000,0.000000000,0.000000000,0.000000000,0.000000000,0.000000000,0.000000000,0.000000000,0.000000000,2.473061847,2.186286440,0.143859863,-0.018615723,0.021972656,163.498054536,0.989196777,0.000000000,0.000000000,0.000000000,0.000000000,0.000000000,0.000000000
1720619271.265395,-0.016362462,0.005454154,0.008726646,0.000000000,0.000000000,0.000000000,0.000000000,0.000000000,0.000000000,0.000000000,0.000000000,0.000000000,0.000000000,0.000000000,0.000000000,0.000000000,0.000000000,0.000000000,0.000000000,2.445976151,2.148237300,0.143676758,-0.018432617,0.021606445,163.517497596,0.989196777,0.000000000,0.000000000,0.000000000,0.000000000,0.000000000,0.000000000
1720619271.312250,-0.009817477,0.006544985,0.017453292,0.000000000,0.000000000,0.000000000,0.000000000,0.000000000,0.000000000,0.000000000,0.000000000,0.000000000,0.000000000,0.000000000,0.000000000,0.000000000,0.000000000,0.000000000,0.000000000,2.428436203,2.130179876,0.143371582,-0.018310547,0.021423340,163.552412965,0.989257813,0.000000000,0.000000000,0.000000000,0.000000000,0.000000000,0.000000000
1720619271.359403,-0.003272492,0.014180800,0.018544123,0.000000000,0.000000000,0.000000000,0.000000000,0.000000000,0.000000000,0.000000000,0.000000000,0.000000000,0.000000000,0.000000000,0.000000000,0.000000000,0.000000000,0.000000000,0.000000000,2.428512687,2.138156299,0.142944336,-0.018310547,0.021484375,163.602059435,0.989318848,0.000000000,0.000000000,0.000000000,0.000000000,0.000000000,0.000000000
1720619271.408398,0.001090831,0.019634955,0.009817477,0.000000000,0.000000000,0.000000000,0.000000000,0.000000000,0.000000000,0.000000000,0.000000000,0.000000000,0.000000000,0.000000000,0.000000000,0.000000000,0.000000000,0.000000000,0.000000000,2.442748561,2.143649535,0.142700195,-0.018432617,0.021545410,163.631142436,0.989379883,0.000000000,0.000000000,0.000000000,0.000000000,0.000000000,0.000000000
1720619271.458548,0.010908308,0.019634955,0.015271631,0.000000000,0.000000000,0.000000000,0.000000000,0.000000000,0.000000000,0.000000000,0.000000000,0.000000000,0.000000000,0.000000000,0.000000000,0.000000000,0.000000000,0.000000000,0.000000000,2.470989414,2.147274920,0.142456055,-0.018676758,0.021606445,163.659450727,0.989379883,0.000000000,0.000000000,0.000000000,0.000000000,0.000000000,0.000000000
1720619271.508349,0.014180800,0.018544123,0.014180800,0.000000000,0.000000000,0.000000000,0.000000000,0.000000000,0.000000000,0.000000000,0.000000000,0.000000000,0.000000000,0.000000000,0.000000000,0.000000000,0.000000000,0.000000000,0.000000000,2.497084223,2.186432574,0.142211914,-0.018859863,0.021972656,163.689492609,0.989440918,0.000000000,0.000000000,0.000000000,0.000000000,0.000000000,0.000000000
1720619271.558342,0.018544123,0.014180800,0.013089970,0.000000000,0.000000000,0.000000000,0.000000000,0.000000000,0.000000000,0.000000000,0.000000000,0.000000000,0.000000000,0.000000000,0.000000000,0.000000000,0.000000000,0.000000000,0.000000000,2.524961715,2.240086132,0.141784668,-0.019042969,0.022460938,163.739690411,0.989440918,0.000000000,0.000000000,0.000000000,0.000000000,0.000000000,0.000000000
1720619271.608255,0.017453292,0.008726646,0.017453292,0.000000000,0.000000000,0.000000000,0.000000000,0.000000000,0.000000000,0.000000000,0.000000000,0.000000000,0.000000000,0.000000000,0.000000000,0.000000000,0.000000000,0.000000000,0.000000000,2.538894395,2.295447206,0.141418457,-0.019104004,0.022949219,163.783741530,0.989501953,0.000000000,0.000000000,0.000000000,0.000000000,0.000000000,0.000000000
1720619271.658238,0.018544123,0.007635816,0.011999139,0.000000000,0.000000000,0.000000000,0.000000000,0.000000000,0.000000000,0.000000000,0.000000000,0.000000000,0.000000000,0.000000000,0.000000000,0.000000000,0.000000000,0.000000000,0.000000000,2.523996680,2.347986207,0.140991211,-0.018920898,0.023376465,163.834078599,0.989562988,0.000000000,0.000000000,0.000000000,0.000000000,0.000000000,0.000000000
1720619271.708256,0.011999139,-0.002181662,0.017453292,0.000000000,0.000000000,0.000000000,0.000000000,0.000000000,0.000000000,0.000000000,0.000000000,0.000000000,0.000000000,0.000000000,0.000000000,0.000000000,0.000000000,0.000000000,0.000000000,2.501572183,2.394339444,0.140686035,-0.018676758,0.023742676,163.869269114,0.989562988,0.000000000,0.000000000,0.000000000,0.000000000,0.000000000,0.000000000
1720619271.758584,0.005454154,-0.005454154,0.021816615,0.000000000,0.000000000,0.000000000,0.000000000,0.000000000,0.000000000,0.000000000,0.000000000,0.000000000,0.000000000,0.000000000,0.000000000,0.000000000,0.000000000,0.000000000,0.000000000,2.480743601,2.405274596,0.140258789,-0.018493652,0.023803711,163.918550402,0.989624023,0.000000000,0.000000000,0.000000000,0.000000000,0.000000000,0.000000000
1720619271.809287,-0.002181662,-0.011999139,0.014180800,0.000000000,0.000000000,0.000000000,0.000000000,0.000000000,0.000000000,0.000000000,0.000000000,0.000000000,0.000000000,0.000000000,0.000000000,0.000000000,0.000000000,0.000000000,0.000000000,2.451717010,2.410278608,0.139770508,-0.018249512,0.023803711,163.975434964,0.989746094,0.000000000,0.000000000,0.000000000,0.000000000,0.000000000,0.000000000
1720619271.862587,-0.007635816,-0.013089970,0.013089970,0.000000000,0.000000000,0.000000000,0.000000000,0.000000000,0.000000000,0.000000000,0.000000000,0.000000000,0.000000000,0.000000000,0.000000000,0.000000000,0.000000000,0.000000000,0.000000000,2.395412224,2.418923390,0.139404297,-0.017761230,0.023803711,164.016979222,0.989807129,0.000000000,0.000000000,0.000000000,0.000000000,0.000000000,0.000000000
1720619271.905428,-0.013089970,-0.011999139,0.014180800,0.000000000,0.000000000,0.000000000,0.000000000,0.000000000,0.000000000,0.000000000,0.000000000,0.000000000,0.000000000,0.000000000,0.000000000,0.000000000,0.000000000,0.000000000,0.000000000,2.335360638,2.399646820,0.139099121,-0.017272949,0.023559570,164.050936482,0.989868164,0.000000000,0.000000000,0.000000000,0.000000000,0.000000000,0.000000000
1720619271.952257,-0.017453292,-0.005454154,0.017453292,0.000000000,0.000000000,0.000000000,0.000000000,0.000000000,0.000000000,0.000000000,0.000000000,0.000000000,0.000000000,0.000000000,0.000000000,0.000000000,0.000000000,0.000000000,0.000000000,2.295004480,2.370667593,0.138732910,-0.016967773,0.023254395,164.092056744,0.989929199,0.000000000,0.000000000,0.000000000,0.000000000,0.000000000,0.000000000
1720619272.001558,-0.017453292,-0.004363323,0.023998277,0.000000000,0.000000000,0.000000000,0.000000000,0.000000000,0.000000000,0.000000000,0.000000000,0.000000000,0.000000000,0.000000000,0.000000000,0.000000000,0.000000000,0.000000000,0.000000000,2.279239430,2.317332899,0.138244629,-0.016906738,0.022766113,164.147073894,0.989990234,0.000000000,0.000000000,0.000000000,0.000000000,0.000000000,0.000000000
1720619272.051076,-0.018544123,0.002181662,0.015271631,0.000000000,0.000000000,0.000000000,0.000000000,0.000000000,0.000000000,0.000000000,0.000000000,0.000000000,0.000000000,0.000000000,0.000000000,0.000000000,0.000000000,0.000000000,0.000000000,2.257557511,2.271871431,0.137756348,-0.016784668,0.022338867,164.202144782,0.990051270,0.000000000,0.000000000,0.000000000,0.000000000,0.000000000,0.000000000
1720619272.101412,-0.016362462,0.007635816,0.013089970,0.000000000,0.000000000,0.000000000,0.000000000,0.000000000,0.000000000,0.000000000,0.000000000,0.000000000,0.000000000,0.000000000,0.000000000,0.000000000,0.000000000,0.000000000,0.000000000,2.244148023,2.231900760,0.137451172,-0.016723633,0.021972656,164.236710354,0.990112305,0.000000000,0.000000000,0.000000000,0.000000000,0.000000000,0.000000000
1720619272.151297,-0.011999139,0.011999139,0.009817477,0.000000000,0.000000000,0.000000000,0.000000000,0.000000000,0.000000000,0.000000000,0.000000000,0.000000000,0.000000000,0.000000000,0.000000000,0.000000000,0.000000000,0.000000000,0.000000000,2.239253246,2.197398673,0.137390137,-0.016723633,0.021667480,164.242870876,0.990112305,0.000000000,0.000000000,0.000000000,0.000000000,0.000000000,0.000000000
1720619272.199351,-0.004363323,0.017453292,0.014180800,0.000000000,0.000000000,0.000000000,0.000000000,0.000000000,0.000000000,0.000000000,0.000000000,0.000000000,0.000000000,0.000000000,0.000000000,0.000000000,0.000000000,0.000000000,0.000000000,2.287012012,2.191373410,0.137084961,-0.017150879,0.021667480,164.279280451,0.990173340,0.000000000,0.000000000,0.000000000,0.000000000,0.000000000,0.000000000
1720619272.247241,0.000000000,0.020725785,0.020725785,0.000000000,0.000000000,0.000000000,0.000000000,0.000000000,0.000000000,0.000000000,0.000000000,0.000000000,0.000000000,0.000000000,0.000000000,0.000000000,0.000000000,0.000000000,0.000000000,2.335497142,2.192629701,0.136657715,-0.017578125,0.021728516,164.329707965,0.990234375,0.000000000,0.000000000,0.000000000,0.000000000,0.000000000,0.000000000
1720619272.295334,0.008726646,0.021816615,0.015271631,0.000000000,0.000000000,0.000000000,0.000000000,0.000000000,0.000000000,0.000000000,0.000000000,0.000000000,0.000000000,0.000000000,0.000000000,0.000000000,0.000000000,0.000000000,0.000000000,2.384255270,2.193879202,0.136291504,-0.018005371,0.021789551,164.372256019,0.990234375,0.000000000,0.000000000,0.000000000,0.000000000,0.000000000,0.000000000
1720619272.344331,0.010908308,0.018544123,0.010908308,0.000000000,0.000000000,0.000000000,0.000000000,0.000000000,0.000000000,0.000000000,0.000000000,0.000000000,0.000000000,0.000000000,0.000000000,0.000000000,0.000000000,0.000000000,0.000000000,2.433796243,2.201985820,0.135925293,-0.018432617,0.021911621,164.415921560,0.990295410,0.000000000,0.000000000,0.000000000,0.000000000,0.000000000,0.000000000
1720619272.394756,0.015271631,0.014180800,0.019634955,0.000000000,0.000000000,0.000000000,0.000000000,0.000000000,0.000000000,0.000000000,0.000000000,0.000000000,0.000000000,0.000000000,0.000000000,0.000000000,0.000000000,0.000000000,0.000000000,2.480568893,2.238586215,0.135681152,-0.018798828,0.022277832,164.445342725,0.990295410,0.000000000,0.000000000,0.000000000,0.000000000,0.000000000,0.000000000
1720619272.444908,0.015271631,0.007635816,0.020725785,0.000000000,0.000000000,0.000000000,0.000000000,0.000000000,0.000000000,0.000000000,0.000000000,0.000000000,0.000000000,0.000000000,0.000000000,0.000000000,0.000000000,0.000000000,0.000000000,2.513652400,2.284769432,0.135131836,-0.019042969,0.022705078,164.510346402,0.990356445,0.000000000,0.000000000,0.000000000,0.000000000,0.000000000,0.000000000
1720619272.491302,0.014180800,0.004363323,0.022907447,0.000000000,0.000000000,0.000000000,0.000000000,0.000000000,0.000000000,0.000000000,0.000000000,0.000000000,0.000000000,0.000000000,0.000000000,0.000000000,0.000000000,0.000000000,0.000000000,2.512162395,2.335500242,0.134643555,-0.018981934,0.023132324,164.567840884,0.990417480,0.000000000,0.000000000,0.000000000,0.000000000,0.000000000,0.000000000
1720619272.538377,0.013089970,-0.005454154,0.017453292,0.000000000,0.000000000,0.000000000,0.000000000,0.000000000,0.000000000,0.000000000,0.000000000,0.000000000,0.000000000,0.000000000,0.000000000,0.000000000,0.000000000,0.000000000,0.000000000,2.508880438,2.372187222,0.134216309,-0.018920898,0.023437500,164.618055584,0.990478516,0.000000000,0.000000000,0.000000000,0.000000000,0.000000000,0.000000000
1720619272.586361,0.009817477,-0.007635816,0.018544123,0.000000000,0.000000000,0.000000000,0.000000000,0.000000000,0.000000000,0.000000000,0.000000000,0.000000000,0.000000000,0.000000000,0.000000000,0.000000000,0.000000000,0.000000000,0.000000000,2.503150198,2.387551026,0.133972168,-0.018859863,0.023559570,164.646947607,0.990539551,0.000000000,0.000000000,0.000000000,0.000000000,0.000000000,0.000000000
1720619272.635245,0.002181662,-0.010908308,0.019634955,0.000000000,0.000000000,0.000000000,0.000000000,0.000000000,0.000000000,0.000000000,0.000000000,0.000000000,0.000000000,0.000000000,0.000000000,0.000000000,0.000000000,0.000000000,0.000000000,2.488253137,2.390480561,0.133544922,-0.018737793,0.023559570,164.696176838,0.990600586,0.000000000,0.000000000,0.000000000,0.000000000,0.000000000,0.000000000
1720619272.685319,0.000000000,-0.015271631,0.019634955,0.000000000,0.000000000,0.000000000,0.000000000,0.000000000,0.000000000,0.000000000,0.000000000,0.000000000,0.000000000,0.000000000,0.000000000,0.000000000,0.000000000,0.000000000,0.000000000,2.451391159,2.389573873,0.132995605,-0.018432617,0.023498535,164.758733691,0.990661621,0.000000000,0.000000000,0.000000000,0.000000000,0.000000000,0.000000000
1720619272.735339,-0.008726646,-0.014180800,0.020725785,0.000000000,0.000000000,0.000000000,0.000000000,0.000000000,0.000000000,0.000000000,0.000000000,0.000000000,0.000000000,0.000000000,0.000000000,0.000000000,0.000000000,0.000000000,0.000000000,2.408769703,2.396154222,0.132568359,-0.018066406,0.023498535,164.807458999,0.990722656,0.000000000,0.000000000,0.000000000,0.000000000,0.000000000,0.000000000
1720619272.785392,-0.011999139,-0.010908308,0.014180800,0.000000000,0.000000000,0.000000000,0.000000000,0.000000000,0.000000000,0.000000000,0.000000000,0.000000000,0.000000000,0.000000000,0.000000000,0.000000000,0.000000000,0.000000000,0.000000000,2.391234754,2.378048433,0.132202148,-0.017944336,0.023315430,164.849254173,0.990783691,0.000000000,0.000000000,0.000000000,0.000000000,0.000000000,0.000000000
1720619272.832150,-0.015271631,-0.006544985,0.035997417,0.000000000,0.000000000,0.000000000,0.000000000,0.000000000,0.000000000,0.000000000,0.000000000,0.000000000,0.000000000,0.000000000,0.000000000,0.000000000,0.000000000,0.000000000,0.000000000,2.370980967,2.346907967,0.131469727,-0.017822266,0.023010254,164.933266024,0.990905762,0.000000000,0.000000000,0.000000000,0.000000000,0.000000000,0.000000000
1720619272.879440,-0.016362462,0.001090831,0.038179077,0.000000000,0.000000000,0.000000000,0.000000000,0.000000000,0.000000000,0.000000000,0.000000000,0.000000000,0.000000000,0.000000000,0.000000000,0.000000000,0.000000000,0.000000000,0.000000000,2.371851494,2.312970352,0.130798340,-0.017883301,0.022705078,165.009801688,0.990966797,0.000000000,0.000000000,0.000000000,0.000000000,0.000000000,0.000000000
1720619272.926367,-0.016362462,0.006544985,0.027270770,0.000000000,0.000000000,0.000000000,0.000000000,0.000000000,0.000000000,0.000000000,0.000000000,0.000000000,0.000000000,0.000000000,0.000000000,0.000000000,0.000000000,0.000000000,0.000000000,2.364531283,2.273201663,0.130004883,-0.017883301,0.022338867,165.100843642,0.991088867,0.000000000,0.000000000,0.000000000,0.000000000,0.000000000,0.000000000
1720619272.972265,-0.013089970,0.014180800,0.016362462,0.000000000,0.000000000,0.000000000,0.000000000,0.000000000,0.000000000,0.000000000,0.000000000,0.000000000,0.000000000,0.000000000,0.000000000,0.000000000,0.000000000,0.000000000,0.000000000,2.379600757,2.237134839,0.129455566,-0.018066406,0.022033691,165.163742753,0.991149902,0.000000000,0.000000000,0.000000000,0.000000000,0.000000000,0.000000000
1720619273.019223,-0.007635816,0.017453292,0.015271631,0.000000000,0.000000000,0.000000000,0.000000000,0.000000000,0.000000000,0.000000000,0.000000000,0.000000000,0.000000000,0.000000000,0.000000000,0.000000000,0.000000000,0.000000000,0.000000000,2.411727618,2.219455454,0.129150391,-0.018371582,0.021911621,165.199594507,0.991210938,0.000000000,0.000000000,0.000000000,0.000000000,0.000000000,0.000000000
1720619273.068230,-0.002181662,0.020725785,0.010908308,0.000000000,0.000000000,0.000000000,0.000000000,0.000000000,0.000000000,0.000000000,0.000000000,0.000000000,0.000000000,0.000000000,0.000000000,0.000000000,0.000000000,0.000000000,0.000000000,2.460583351,2.220938850,0.128845215,-0.018798828,0.021972656,165.235266241,0.991210938,0.000000000,0.000000000,0.000000000,0.000000000,0.000000000,0.000000000
1720619273.118642,0.000000000,0.018544123,0.027270770,0.000000000,0.000000000,0.000000000,0.000000000,0.000000000,0.000000000,0.000000000,0.000000000,0.000000000,0.000000000,0.000000000,0.000000000,0.000000000,0.000000000,0.000000000,0.000000000,2.515976135,2.221783470,0.128417969,-0.019287109,0.022033691,165.285832918,0.991271973,0.000000000,0.000000000,0.000000000,0.000000000,0.000000000,0.000000000
1720619273.168119,0.004363323,0.018544123,0.032724924,0.000000000,0.000000000,0.000000000,0.000000000,0.000000000,0.000000000,0.000000000,0.000000000,0.000000000,0.000000000,0.000000000,0.000000000,0.000000000,0.000000000,0.000000000,0.000000000,2.570620759,2.223427678,0.127685547,-0.019775391,0.022094727,165.371996424,0.991394043,0.000000000,0.000000000,0.000000000,0.000000000,0.000000000,0.000000000
1720619273.218900,0.009817477,0.015271631,0.026179940,0.000000000,0.000000000,0.000000000,0.000000000,0.000000000,0.000000000,0.000000000,0.000000000,0.000000000,0.000000000,0.000000000,0.000000000,0.000000000,0.000000000,0.000000000,0.000000000,2.611564448,2.227033980,0.126953125,-0.020141602,0.022155762,165.457046700,0.991455078,0.000000000,0.000000000,0.000000000,0.000000000,0.000000000,0.000000000
